{"Company":[{"ID":"95925","MC":"\u83B1\u5DDE\u5E02\u83B1\u6C47\u5851\u6599\u6709\u9650\u516C\u53F8","AreaBH":"0137068307","AreaMC":"\u5C71\u4E1C\u7701-\u70DF\u53F0\u5E02-\u83B1\u5DDE\u5E02-\u6C99\u6CB3\u9547","Address":"\u5C71\u4E1C\u7701\u70DF\u53F0\u5E02\u83B1\u5DDE\u5E02S264(\u70DF\u6C55\u7EBF)","MLng":"119.79318","MLat":"37.075156","TypeBH":"03","TypeMC":"\u4E5D\u5C0F\u573A\u6240","FireManagerTel":"18660041986"},{"ID":"32","MC":"\u70DF\u53F0\u5927\u60A6\u57CE","AreaBH":"01370602","AreaMC":"\u5C71\u4E1C\u7701\u70DF\u53F0\u5E02-\u829D\u7F58\u533A","Address":"\u829D\u7F58\u533A\u5317\u9A6C\u8DEF150\u53F7","MLng":"121.394189","MLat":"37.550685","TypeBH":"01","TypeMC":"\u6D88\u9632\u5B89\u5168\u91CD\u70B9\u5355\u4F4D","FireManagerTel":"18363868700"},{"ID":"47","MC":"\u70DF\u53F0\u4E09\u7AD9\u7535\u8111\u5E02\u573A\u6709\u9650\u8D23\u4EFB\u516C\u53F8","AreaBH":"0137060208","AreaMC":"\u5C71\u4E1C\u7701\u70DF\u53F0\u5E02-\u829D\u7F58\u533A-\u901A\u4F38\u8857\u9053\u529E\u4E8B\u5904","Address":"\u70DF\u53F0\u5E02\u829D\u7F58\u533A\u829D\u7F58\u5C6F\u8DEF13\u53F7","MLng":"121.379787","MLat":"37.556635","TypeBH":"01","TypeMC":"\u6D88\u9632\u5B89\u5168\u91CD\u70B9\u5355\u4F4D","FireManagerTel":"13964595327"},{"ID":"102","MC":"\u70DF\u53F0\u6D77\u5FB7\u5305\u88C5\u5DE5\u4E1A\u6709\u9650\u516C\u53F8(\u6D77\u798F\u6D17\u6D74\u5E7F\u573A)","AreaBH":"0137061206","AreaMC":"\u725F\u5E73\u533A-\u9C7C\u9E1F\u6CB3\u8857\u9053\u529E\u4E8B\u5904","Address":"\u725F\u5E73\u5F00\u53D1\u533A\u6B66\u4E94\u8DEF556\u53F7","MLng":"121.604042","MLat":"37.436635","TypeBH":"01","TypeMC":"\u6D88\u9632\u5B89\u5168\u91CD\u70B9\u5355\u4F4D","FireManagerTel":"13863889619"},{"ID":"123","MC":"\u5C71\u4E1C\u9E3F\u8FBE\u96C6\u56E2\u83B1\u9633\u9F99\u95E8\u5927\u9152\u5E97\u6709\u9650\u516C\u53F8","AreaBH":"0137068201","AreaMC":"\u57CE\u53A2\u8857\u9053\u529E\u4E8B\u5904","Address":"\u83B1\u9633\u5E02\u9F99\u95E8\u897F\u8DEF26\u53F7","MLng":"120.733874","MLat":"36.974303","TypeBH":"01","TypeMC":"\u6D88\u9632\u5B89\u5168\u91CD\u70B9\u5355\u4F4D","FireManagerTel":"18615073587"},{"ID":"125","MC":"\u70DF\u53F0\u65B9\u5927\u6EDA\u5851\u6709\u9650\u516C\u53F8","AreaBH":"0137069701","AreaMC":"\u9AD8\u65B0\u533A-\u9A6C\u5C71\u8857\u9053\u529E\u4E8B\u5904","Address":"\u9AD8\u65B0\u533A\u7EAC\u56DB\u8DEF21\u53F7","MLng":"121.538803","MLat":"37.423277","TypeBH":"02","TypeMC":"\u6D88\u9632\u5B89\u5168\u4E00\u822C\u5355\u4F4D","FireManagerTel":"6766575"},{"ID":"128","MC":" \u70DF\u53F0\u5E02\u5BB6\u5BB6\u60A6\u8D85\u5E02\u6709\u9650\u516C\u53F8(\u83B1\u5DDE\u4E00\u5E97)","AreaBH":"0137068301","AreaMC":"\u6587\u660C\u8DEF\u8857\u9053\u529E\u4E8B\u5904","Address":"\u83B1\u5DDE\u5E02\u6587\u660C\u5317\u8DEF\u90AE\u653F\u5C40\u5BF9\u9762","MLng":"119.955074","MLat":"37.186198","TypeBH":"02","TypeMC":"\u6D88\u9632\u5B89\u5168\u4E00\u822C\u5355\u4F4D","FireManagerTel":"15318660353"},{"ID":"129","MC":"\u70DF\u53F0\u71D5\u6DB5\u7ECF\u8D38\u6709\u9650\u8D23\u4EFB\u516C\u53F8","AreaBH":"0137060208","AreaMC":"\u5C71\u4E1C\u7701\u70DF\u53F0\u5E02-\u829D\u7F58\u533A-\u901A\u4F38\u8857\u9053\u529E\u4E8B\u5904","Address":"\u70DF\u53F0\u5E02\u829D\u7F58\u533A\u5174\u4E1A\u8DEF6\u53F7","MLng":"121.380539","MLat":"37.554432","TypeBH":"01","TypeMC":"\u6D88\u9632\u5B89\u5168\u91CD\u70B9\u5355\u4F4D","FireManagerTel":"15054538777"},{"ID":"130","MC":"\u83B1\u9633\u5E02\u6587\u5CF0\u5B66\u6821","AreaBH":"0137068201","AreaMC":"\u57CE\u53A2\u8857\u9053\u529E\u4E8B\u5904","Address":"\u83B1\u9633\u5E02\u9E64\u5C71\u4E1C\u8DEF","MLng":"120.742043","MLat":"36.967883","TypeBH":"01","TypeMC":"\u6D88\u9632\u5B89\u5168\u91CD\u70B9\u5355\u4F4D","FireManagerTel":"15266520192"},{"ID":"132","MC":" \u70DF\u53F0\u5E02\u5BB6\u5BB6\u60A6\u8D85\u5E02\u6709\u9650\u516C\u53F8(\u83B1\u5DDE\u4E8C\u5E97)","AreaBH":"0137068301","AreaMC":"\u6587\u660C\u8DEF\u8857\u9053\u529E\u4E8B\u5904","Address":"\u83B1\u5DDE\u5E02\u6587\u5316\u4E1C\u8DEF","MLng":"119.946648","MLat":"37.175991","TypeBH":"01","TypeMC":"\u6D88\u9632\u5B89\u5168\u91CD\u70B9\u5355\u4F4D","FireManagerTel":"15318660353"},{"ID":"139","MC":"\u70DF\u53F0\u5E02\u5BB6\u5BB6\u60A6\u8D85\u5E02\u6709\u9650\u516C\u53F8\uFF08\u83B1\u5DDE\u4E03\u5E97\uFF09","AreaBH":"0137068317","AreaMC":"\u5C71\u4E1C\u7701-\u70DF\u53F0\u5E02-\u83B1\u5DDE\u5E02-\u571F\u5C71\u9547","Address":"\u83B1\u5DDE\u5E02\u571F\u5C71\u9547\u6F58\u5BB6\u6751\u5546\u4F4F\u697C\u4E00\u5C42\u5546\u4E1A\u7F51\u70B9","MLng":"119.697769","MLat":"37.061186","TypeBH":"02","TypeMC":"\u6D88\u9632\u5B89\u5168\u4E00\u822C\u5355\u4F4D","FireManagerTel":"15853593755"},{"ID":"140","MC":"\u83B1\u9633\u5E02\u5B9E\u9A8C\u4E2D\u5B66","AreaBH":"0137068201","AreaMC":"\u57CE\u53A2\u8857\u9053\u529E\u4E8B\u5904","Address":"\u83B1\u9633\u5E02\u82A6\u5C71\u885733\u53F7","MLng":"120.717336","MLat":"36.970072","TypeBH":"02","TypeMC":"\u6D88\u9632\u5B89\u5168\u4E00\u822C\u5355\u4F4D","FireManagerTel":"18615027582"},{"ID":"162","MC":"\u4E2D\u96C6\u6D77\u6D0B\u5DE5\u7A0B\u7814\u7A76\u9662\u6709\u9650\u516C\u53F8","AreaBH":"0137069701","AreaMC":"\u9AD8\u65B0\u533A-\u9A6C\u5C71\u8857\u9053\u529E\u4E8B\u5904","Address":"\u9AD8\u65B0\u533A\u79D1\u6280\u5927\u9053","MLng":"121.513039","MLat":"37.448463","TypeBH":"01","TypeMC":"\u6D88\u9632\u5B89\u5168\u91CD\u70B9\u5355\u4F4D","FireManagerTel":"4879024"},{"ID":"163","MC":"\u70DF\u53F0\u8054\u6C11\u7269\u4E1A\u96C6\u56E2\u6709\u9650\u516C\u53F8\uFF08\u8054\u6C11\u4F17\u8BDA\u6570\u7801\u5546\u573A\uFF09","AreaBH":"0137060208","AreaMC":"\u5C71\u4E1C\u7701\u70DF\u53F0\u5E02-\u829D\u7F58\u533A-\u901A\u4F38\u8857\u9053\u529E\u4E8B\u5904","Address":"\u70DF\u53F0\u5E02\u829D\u7F58\u533A\u829D\u7F58\u5C6F\u8DEF11\u53F7","MLng":"121.379488","MLat":"37.544555","TypeBH":"01","TypeMC":"\u6D88\u9632\u5B89\u5168\u91CD\u70B9\u5355\u4F4D","FireManagerTel":"6242367"},{"ID":"208","MC":"\u4E2D\u56FD\u519C\u4E1A\u94F6\u884C\u80A1\u4EFD\u6709\u9650\u516C\u53F8\u83B1\u9633\u5E02\u652F\u884C","AreaBH":"0137068201","AreaMC":"\u57CE\u53A2\u8857\u9053\u529E\u4E8B\u5904","Address":"\u83B1\u9633\u5E02\u4E94\u9F99\u5357\u8DEF90\u53F7","MLng":"120.714348","MLat":"36.965002","TypeBH":"01","TypeMC":"\u6D88\u9632\u5B89\u5168\u91CD\u70B9\u5355\u4F4D","FireManagerTel":"0535-7800007"},{"ID":"218","MC":"\u70DF\u53F0\u5E02\u5BB6\u5BB6\u60A6\u8D85\u5E02\u6709\u9650\u516C\u53F8\u6D77\u9633\u767E\u8D27\u8D2D\u7269\u5E7F\u573A","AreaBH":"0137068704","AreaMC":"\u6D77\u9633\u5E02-\u65B9\u5706\u8857\u9053\u529E\u4E8B\u5904","Address":"\u6D77\u9633\u8DEF68\u53F7","MLng":"121.174993","MLat":"36.78518","TypeBH":"01","TypeMC":"\u6D88\u9632\u5B89\u5168\u91CD\u70B9\u5355\u4F4D","FireManagerTel":"15064535900"},{"ID":"221","MC":"\u70DF\u53F0\u4E09\u7AD9\u91D1\u6865\u7269\u4E1A\u7BA1\u7406\u6709\u9650\u8D23\u4EFB\u516C\u53F8","AreaBH":"0137060208","AreaMC":"\u5C71\u4E1C\u7701\u70DF\u53F0\u5E02-\u829D\u7F58\u533A-\u901A\u4F38\u8857\u9053\u529E\u4E8B\u5904","Address":"\u70DF\u53F0\u5E02\u829D\u7F58\u533A\u5174\u4E1A\u8DEF21\u53F7","MLng":"121.379799","MLat":"37.556403","TypeBH":"01","TypeMC":"\u6D88\u9632\u5B89\u5168\u91CD\u70B9\u5355\u4F4D","FireManagerTel":"2915523"},{"ID":"254","MC":"\u83B1\u9633\u5E02\u6052\u6CF0\u98DF\u54C1\u6709\u9650\u516C\u53F8","AreaBH":"013706820801","AreaMC":"\u5C71\u4E1C\u7701-\u70DF\u53F0\u5E02-\u83B1\u9633\u5E02-\u6CB3\u6D1B\u9547-\u83B1\u9633\u5E02\u6CB3\u6D1B\u9547","Address":"\u83B1\u9633\u5E02\u5171\u5EFA\u8DEF66\u53F7","MLng":"120.719289","MLat":"37.005164","TypeBH":"01","TypeMC":"\u6D88\u9632\u5B89\u5168\u91CD\u70B9\u5355\u4F4D","FireManagerTel":"0535-7999669"},{"ID":"263","MC":"\u70DF\u53F0\u745E\u534E\u98DF\u54C1\u6709\u9650\u516C\u53F8","AreaBH":"0137069701","AreaMC":"\u9AD8\u65B0\u533A-\u9A6C\u5C71\u8857\u9053\u529E\u4E8B\u5904","Address":"\u9AD8\u65B0\u533A\u7ECF\u516D\u8DEF18\u53F7","MLng":"121.538754","MLat":"37.42093","TypeBH":"01","TypeMC":"\u6D88\u9632\u5B89\u5168\u91CD\u70B9\u5355\u4F4D","FireManagerTel":"7399010"},{"ID":"269","MC":"\u5C71\u4E1C\u5546\u52A1\u804C\u4E1A\u5B66\u9662","AreaBH":"0137069701","AreaMC":"\u9AD8\u65B0\u533A-\u9A6C\u5C71\u8857\u9053\u529E\u4E8B\u5904","Address":"\u9AD8\u65B0\u533A\u822A\u5929\u8DEF1001\u53F7","MLng":"121.519659","MLat":"37.431405","TypeBH":"01","TypeMC":"\u6D88\u9632\u5B89\u5168\u91CD\u70B9\u5355\u4F4D","FireManagerTel":"6925008"},{"ID":"274","MC":"\u83B1\u5DDE\u9F99\u6CF0\u70ED\u7535\u6709\u9650\u516C\u53F8","AreaBH":"0137068304","AreaMC":"\u57CE\u6E2F\u8DEF\u8857\u9053\u529E\u4E8B\u5904","Address":"\u83B1\u5DDE\u5E02\u7ECF\u6D4E\u5F00\u53D1\u533A\u7389\u6CF0\u897F\u8DEF","MLng":"119.946715","MLat":"37.223099","TypeBH":"01","TypeMC":"\u6D88\u9632\u5B89\u5168\u91CD\u70B9\u5355\u4F4D","FireManagerTel":"13964570838"},{"ID":"284","MC":"\u70DF\u53F0\u5E02\u4E2D\u82F1\u6587\u5B66\u6821","AreaBH":"0137068715","AreaMC":"\u5C71\u4E1C\u7701-\u70DF\u53F0\u5E02-\u6D77\u9633\u5E02-\u7ECF\u6D4E\u6280\u672F\u5F00\u53D1\u533A","Address":"\u6E29\u5DDE\u88576\u53F7","MLng":"121.208759","MLat":"36.754157","TypeBH":"01","TypeMC":"\u6D88\u9632\u5B89\u5168\u91CD\u70B9\u5355\u4F4D","FireManagerTel":"15668086611"},{"ID":"291","MC":"\u70DF\u53F0\u91D1\u5EFA\u51B6\u91D1\u79D1\u6280\u6709\u9650\u516C\u53F8","AreaBH":"0137069701","AreaMC":"\u9AD8\u65B0\u533A-\u9A6C\u5C71\u8857\u9053\u529E\u4E8B\u5904","Address":"\u9AD8\u65B0\u533A\u5B66\u5E9C\u897F\u8DEF18\u53F7","MLng":"121.508382","MLat":"37.442691","TypeBH":"01","TypeMC":"\u6D88\u9632\u5B89\u5168\u91CD\u70B9\u5355\u4F4D","FireManagerTel":"18660019159"},{"ID":"308","MC":"\u6D77\u9633\u5E02\u519C\u5546\u94F6\u884C","AreaBH":"01370687","AreaMC":"\u6D77\u9633\u5E02","Address":"\u6D77\u9633\u8DEF208\u53F7","MLng":"121.204859","MLat":"36.787089","TypeBH":"01","TypeMC":"\u6D88\u9632\u5B89\u5168\u91CD\u70B9\u5355\u4F4D","FireManagerTel":"3235185"},{"ID":"315","MC":"\u5C71\u4E1C\u9C81\u70DF\u83B1\u5DDE\u5370\u52A1\u6709\u9650\u516C\u53F8","AreaBH":"0137068304","AreaMC":"\u57CE\u6E2F\u8DEF\u8857\u9053\u529E\u4E8B\u5904","Address":"\u83B1\u5DDE\u5E02\u5F00\u53D1\u533A\u5F00\u660E\u8DEF1569\u53F7","MLng":"119.965005","MLat":"37.21897","TypeBH":"01","TypeMC":"\u6D88\u9632\u5B89\u5168\u91CD\u70B9\u5355\u4F4D","FireManagerTel":"2293030"},{"ID":"332","MC":"\u84EC\u83B1\u5E02\u4EBA\u6C11\u533B\u9662","AreaBH":"0137068401","AreaMC":"\u767B\u5DDE\u8857\u9053\u529E\u4E8B\u5904","Address":"\u84EC\u83B1\u5E02\u53BF\u540E\u8DEF89\u53F7","MLng":"120.774342","MLat":"37.818327","TypeBH":"01","TypeMC":"\u6D88\u9632\u5B89\u5168\u91CD\u70B9\u5355\u4F4D","FireManagerTel":"5600758"},{"ID":"335","MC":"\u84EC\u83B1\u5E02\u4E2D\u533B\u533B\u9662","AreaBH":"0137068401","AreaMC":"\u767B\u5DDE\u8857\u9053\u529E\u4E8B\u5904","Address":"\u84EC\u83B1\u5E02\u5357\u73AF\u8DEF132\u53F7","MLng":"120.804071","MLat":"37.798598","TypeBH":"01","TypeMC":"\u6D88\u9632\u5B89\u5168\u91CD\u70B9\u5355\u4F4D","FireManagerTel":"5723962"},{"ID":"338","MC":"\u5C71\u4E1C\u987A\u5FB7\u76DB\u96C6\u56E2\u6709\u9650\u516C\u53F8","AreaBH":"0137068204","AreaMC":"\u67CF\u6797\u5E84\u8857\u9053\u529E\u4E8B\u5904","Address":"\u83B1\u9633\u5E02\u67CF\u6797\u5E84\u5C0F\u57E0\u9876\u6751","MLng":"120.682256","MLat":"36.998303","TypeBH":"01","TypeMC":"\u6D88\u9632\u5B89\u5168\u91CD\u70B9\u5355\u4F4D","FireManagerTel":"13853577968"},{"ID":"382","MC":"\u83B1\u9633\u6B63\u6E90\u767E\u8D27\u6709\u9650\u8D23\u4EFB\u516C\u53F8","AreaBH":"0137068201","AreaMC":"\u57CE\u53A2\u8857\u9053\u529E\u4E8B\u5904","Address":"\u83B1\u9633\u5E02\u4E94\u9F99\u5357\u8DEF68\u53F7","MLng":"120.714172","MLat":"36.967721","TypeBH":"01","TypeMC":"\u6D88\u9632\u5B89\u5168\u91CD\u70B9\u5355\u4F4D","FireManagerTel":"7211286"},{"ID":"388","MC":"\u70DF\u53F0\u5E02\u5FC3\u7406\u5EB7\u590D\u533B\u9662","AreaBH":"0137068201","AreaMC":"\u57CE\u53A2\u8857\u9053\u529E\u4E8B\u5904","Address":"\u83B1\u9633\u5E02\u65CC\u65D7\u4E1C\u8DEF109\u53F7","MLng":"120.745752","MLat":"36.982162","TypeBH":"01","TypeMC":"\u6D88\u9632\u5B89\u5168\u91CD\u70B9\u5355\u4F4D","FireManagerTel":"7285603"},{"ID":"389","MC":"\u5229\u7FA4\u96C6\u56E2\u84EC\u83B1\u8D2D\u7269\u5E7F\u573A\u6709\u9650\u516C\u53F8","AreaBH":"013706840114","AreaMC":"\u5C71\u4E1C\u7701-\u70DF\u53F0\u5E02-\u84EC\u83B1\u5E02-\u767B\u5DDE\u8857\u9053\u529E\u4E8B\u5904-\u4E1C\u57CE\u793E\u533A","Address":"\u84EC\u83B1\u5E02\u5317\u5173\u8DEF686\u53F7","MLng":"120.766471","MLat":"37.822489","TypeBH":"01","TypeMC":"\u6D88\u9632\u5B89\u5168\u91CD\u70B9\u5355\u4F4D","FireManagerTel":"15668096958"},{"ID":"401","MC":"\u83B1\u9633\u5E02\u4EBA\u6C11\u6CD5\u9662","AreaBH":"0137068201","AreaMC":"\u57CE\u53A2\u8857\u9053\u529E\u4E8B\u5904","Address":"\u83B1\u9633\u5E02\u53E4\u57CE\u8DEF19\u53F7","MLng":"120.706389","MLat":"36.954455","TypeBH":"03","TypeMC":"\u4E5D\u5C0F\u573A\u6240","FireManagerTel":"0535-7386000"},{"ID":"429","MC":"\u84EC\u83B1\u81EA\u7531\u6E2F\u9152\u5E97\u7BA1\u7406\u6709\u9650\u516C\u53F8","AreaBH":"013706840103","AreaMC":"\u5C71\u4E1C\u7701-\u70DF\u53F0\u5E02-\u84EC\u83B1\u5E02-\u767B\u5DDE\u8857\u9053\u529E\u4E8B\u5904-\u6D77\u666F\u82D1\u793E\u533A","Address":"\u84EC\u83B1\u5E02\u6D77\u5E02\u8DEF7\u53F7","MLng":"120.798686","MLat":"37.814643","TypeBH":"01","TypeMC":"\u6D88\u9632\u5B89\u5168\u91CD\u70B9\u5355\u4F4D","FireManagerTel":"13805645712"},{"ID":"432","MC":"\u5229\u7FA4\u96C6\u56E2\u84EC\u83B1\u534E\u73BA\u9152\u5E97\u6709\u9650\u516C\u53F8","AreaBH":"013706840114","AreaMC":"\u5C71\u4E1C\u7701-\u70DF\u53F0\u5E02-\u84EC\u83B1\u5E02-\u767B\u5DDE\u8857\u9053\u529E\u4E8B\u5904-\u4E1C\u57CE\u793E\u533A","Address":"\u84EC\u83B1\u5E02\u5317\u5173\u8DEF686\u53F7","MLng":"120.76853","MLat":"37.82231","TypeBH":"01","TypeMC":"\u6D88\u9632\u5B89\u5168\u91CD\u70B9\u5355\u4F4D","FireManagerTel":"15668096958"},{"ID":"435","MC":"\u6D77\u9633\u5E02\u767E\u8D27\u5927\u697C\u6709\u9650\u516C\u53F8","AreaBH":"0137068702","AreaMC":"\u5C71\u4E1C\u7701\u70DF\u53F0\u5E02-\u6D77\u9633\u5E02-\u4E1C\u6751\u8857\u9053\u529E\u4E8B\u5904","Address":"\u6D77\u653F\u8DEF54\u53F7","MLng":"121.167294","MLat":"36.782594","TypeBH":"01","TypeMC":"\u6D88\u9632\u5B89\u5168\u91CD\u70B9\u5355\u4F4D","FireManagerTel":"3106683"},{"ID":"464","MC":"\u5C71\u4E1C\u7EFF\u53F6\u5236\u836F\u6709\u9650\u516C\u53F8","AreaBH":"0137069701","AreaMC":"\u9AD8\u65B0\u533A-\u9A6C\u5C71\u8857\u9053\u529E\u4E8B\u5904","Address":"\u70DF\u53F0\u9AD8\u65B0\u533A\u521B\u4E1A\u8DEF15\u53F7","MLng":"121.551599","MLat":"37.427356","TypeBH":"01","TypeMC":"\u6D88\u9632\u5B89\u5168\u91CD\u70B9\u5355\u4F4D","FireManagerTel":"18754545966"},{"ID":"473","MC":"\u70DF\u53F0\u632F\u534E\u7269\u6D41\u6709\u9650\u516C\u53F8","AreaBH":"0137069701","AreaMC":"\u9AD8\u65B0\u533A-\u9A6C\u5C71\u8857\u9053\u529E\u4E8B\u5904","Address":"\u9AD8\u65B0\u533A\u7EAC\u4E94\u8DEF12\u53F7","MLng":"121.53534","MLat":"37.426453","TypeBH":"01","TypeMC":"\u6D88\u9632\u5B89\u5168\u91CD\u70B9\u5355\u4F4D","FireManagerTel":"13395350975"},{"ID":"482","MC":"\u6D77\u9633\u5E02\u7B2C\u4E8C\u4E2D\u5B66","AreaBH":"0137068709","AreaMC":"\u6D77\u9633\u5E02-\u5F90\u5BB6\u5E97\u9547","Address":"\u5F90\u5BB6\u5E97\u9547\u9A7B\u5730","MLng":"121.013135","MLat":"37.095671","TypeBH":"01","TypeMC":"\u6D88\u9632\u5B89\u5168\u91CD\u70B9\u5355\u4F4D","FireManagerTel":"15563836055"},{"ID":"518","MC":"\u70DF\u53F0\u632F\u534E\u91CF\u8D29\u8D85\u5E02\u6709\u9650\u516C\u53F8\u9AD8\u65B0\u533A\u79D1\u6280\u5E7F\u573A\u5E97","AreaBH":"013706970104","AreaMC":"\u5C71\u4E1C\u7701-\u70DF\u53F0\u5E02-\u9AD8\u65B0\u533A-\u9A6C\u5C71\u8857\u9053\u529E\u4E8B\u5904-\u8349\u57E0\u6751","Address":"\u9AD8\u65B0\u533A\u79D1\u6280\u5927\u9053","MLng":"121.489306","MLat":"37.453534","TypeBH":"01","TypeMC":"\u6D88\u9632\u5B89\u5168\u91CD\u70B9\u5355\u4F4D","FireManagerTel":"13583558618"},{"ID":"520","MC":"\u798F\u5C71\u70ED\u529B\u96C6\u56E2\u6709\u9650\u516C\u53F8","AreaBH":"0137061101","AreaMC":"\u6E05\u6D0B\u8857\u9053\u529E\u4E8B\u5904","Address":"\u798F\u5C71\u533A\u92AE\u9A7E\u8DEF21\u53F7","MLng":"121.265927","MLat":"37.506232","TypeBH":"03","TypeMC":"\u4E5D\u5C0F\u573A\u6240","FireManagerTel":"6980631"},{"ID":"552","MC":"\u84EC\u83B1\u5E02\u804C\u4E1A\u4E2D\u7B49\u4E13\u4E1A\u5B66\u6821","AreaBH":"0137068401","AreaMC":"\u84EC\u83B1\u5E02-\u767B\u5DDE\u8857\u9053\u529E\u4E8B\u5904","Address":"\u84EC\u83B1\u5E02\u949F\u697C\u5357\u8DEF227\u53F7","MLng":"120.764087","MLat":"37.800354","TypeBH":"01","TypeMC":"\u6D88\u9632\u5B89\u5168\u91CD\u70B9\u5355\u4F4D","FireManagerTel":"13583517808"},{"ID":"576","MC":"\u70DF\u53F0\u6E90\u660E\u7EBA\u7EC7\u79D1\u6280\u6709\u9650\u516C\u53F8","AreaBH":"0137069701","AreaMC":"\u9AD8\u65B0\u533A-\u9A6C\u5C71\u8857\u9053\u529E\u4E8B\u5904","Address":"\u9AD8\u65B0\u533A\u6842\u5C71\u8DEF6\u53F7","MLng":"121.501213","MLat":"37.425997","TypeBH":"02","TypeMC":"\u6D88\u9632\u5B89\u5168\u4E00\u822C\u5355\u4F4D","FireManagerTel":"13791237928"},{"ID":"622","MC":"\u70DF\u53F0\u4E2D\u6CB9\u77F3\u6CB9\u50A8\u8FD0\u9500\u552E\u6709\u9650\u516C\u53F8\u83B1\u5C71\u52A0\u6CB9\u7AD9","AreaBH":"013706130709","AreaMC":"\u5C71\u4E1C\u7701-\u70DF\u53F0\u5E02-\u83B1\u5C71\u533A-\u83B1\u5C71\u7ECF\u6D4E\u5F00\u53D1\u533A-\u66F2\u5BB6\u5E84\u793E\u533A","Address":"\u83B1\u5C71\u5F00\u53D1\u533A\u9752\u83B1\u8DEF\u897F\u673A\u573A\u8DEF\u5317","MLng":"121.405243","MLat":"37.421679","TypeBH":"01","TypeMC":"\u6D88\u9632\u5B89\u5168\u91CD\u70B9\u5355\u4F4D","FireManagerTel":"15910024700"},{"ID":"625","MC":"\u9F99\u53E3\u5E02\u5E02\u573A\u53D1\u5C55\u7BA1\u7406\u529E\u516C\u5BA4\uFF08\u4E1C\u6C5F\u5BB6\u5177\u88C5\u9970\u6750\u6599\u5E02\u573A\uFF09","AreaBH":"0137068105","AreaMC":"\u4E1C\u6C5F\u8857\u9053\u529E\u4E8B\u5904","Address":"\u9F99\u53E3\u5E02\u725F\u9EC4\u516C\u8DEF\u5357","MLng":"120.54524","MLat":"37.638975","TypeBH":"01","TypeMC":"\u6D88\u9632\u5B89\u5168\u91CD\u70B9\u5355\u4F4D","FireManagerTel":"8614471"},{"ID":"679","MC":"\u5C71\u4E1C\u84EC\u83B1\u56FD\u5BB6\u7CAE\u98DF\u50A8\u5907\u5E93","AreaBH":"013706840302","AreaMC":"\u5C71\u4E1C\u7701-\u70DF\u53F0\u5E02-\u84EC\u83B1\u5E02-\u65B0\u6E2F\u8857\u9053\u529E\u4E8B\u5904-\u6D88\u9632\u5206\u7BA1","Address":"\u84EC\u83B1\u5E02\u5F00\u53D1\u533A\u91D1\u521B\u8DEF\u8DEF\u5357","MLng":"120.84304","MLat":"37.801578","TypeBH":"01","TypeMC":"\u6D88\u9632\u5B89\u5168\u91CD\u70B9\u5355\u4F4D","FireManagerTel":"13012581892"},{"ID":"702","MC":"\u9F99\u53E3\u5E02\u4E1C\u83B1\u5BBE\u9986","AreaBH":"0137068102","AreaMC":"\u5C71\u4E1C\u7701-\u70DF\u53F0\u5E02-\u9F99\u53E3\u5E02-\u4E1C\u83B1\u8857\u9053\u529E\u4E8B\u5904","Address":"\u9F99\u53E3\u5E02\u6E2F\u57CE\u5927\u9053618\u53F7","MLng":"120.515911","MLat":"37.645071","TypeBH":"01","TypeMC":"\u6D88\u9632\u5B89\u5168\u91CD\u70B9\u5355\u4F4D","FireManagerTel":"18753592728"},{"ID":"710","MC":"\u9F99\u53E3\u5E02\u9EC4\u57CE\u4EBA\u7F18\u5BB4\u4F1A\u5385","AreaBH":"0137068102","AreaMC":"\u4E1C\u83B1\u8857\u9053\u529E\u4E8B\u5904","Address":"\u9F99\u53E3\u5E02\u5357\u5C71\u8DEF\u9633\u5149\u82B1\u56ED1#\u4E34\u8857\u697C","MLng":"120.485089","MLat":"37.649805","TypeBH":"01","TypeMC":"\u6D88\u9632\u5B89\u5168\u91CD\u70B9\u5355\u4F4D","FireManagerTel":"13905454313"},{"ID":"715","MC":"\u9F99\u53E3\u5E02\u5409\u7965\u5BB6\u9152\u5E97\u7BA1\u7406\u6709\u9650\u516C\u53F8","AreaBH":"0137068102","AreaMC":"\u4E1C\u83B1\u8857\u9053\u529E\u4E8B\u5904","Address":" \u9F99\u53E3\u5E02\u9EC4\u57CE\u901A\u6D77\u8DEF183\u53F7","MLng":"120.523668","MLat":"37.644924","TypeBH":"03","TypeMC":"\u4E5D\u5C0F\u573A\u6240","FireManagerTel":"15063849771"},{"ID":"747","MC":"\u70DF\u53F0\u767E\u601D\u7EF4\u7535\u5F71\u57CE\uFF08\u91D1\u5B57\u5854\u9F99\u8005\u5F71\u57CE\uFF09","AreaBH":"0137061101","AreaMC":"\u798F\u5C71\u533A-\u6E05\u6D0B\u8857\u9053\u529E\u4E8B\u5904","Address":"\u5C71\u4E1C\u7701\u70DF\u53F0\u5E02\u798F\u5C71\u533A\u540C\u798F\u8857","MLng":"121.265156","MLat":"37.511278","TypeBH":"01","TypeMC":"\u6D88\u9632\u5B89\u5168\u91CD\u70B9\u5355\u4F4D","FireManagerTel":" 15166859456"},{"ID":"757","MC":"\u70DF\u53F0\u5A01\u9F99\u8461\u8404\u9152\u80A1\u4EFD\u6709\u9650\u516C\u53F8","AreaBH":"0137068102","AreaMC":"\u5C71\u4E1C\u7701-\u70DF\u53F0\u5E02-\u9F99\u53E3\u5E02-\u4E1C\u83B1\u8857\u9053\u529E\u4E8B\u5904","Address":"\u9F99\u53E3\u5E02\u73AF\u57CE\u5317\u8DEF276\u53F7","MLng":"120.532386","MLat":"37.663288","TypeBH":"01","TypeMC":"\u6D88\u9632\u5B89\u5168\u91CD\u70B9\u5355\u4F4D","FireManagerTel":"13864509233"},{"ID":"774","MC":"\u9F99\u53E3\u5E02\u9E3F\u7FD4\u5A31\u4E50\u670D\u52A1\u6709\u9650\u8D23\u4EFB\u516C\u53F8","AreaBH":"0137068102","AreaMC":"\u4E1C\u83B1\u8857\u9053\u529E\u4E8B\u5904","Address":"\u9F99\u53E3\u5E02\u5357\u5C71\u8DEF81\u53F7","MLng":"120.510567","MLat":"37.654984","TypeBH":"03","TypeMC":"\u4E5D\u5C0F\u573A\u6240","FireManagerTel":"15963586789"},{"ID":"789","MC":"\u70DF\u53F0\u82AD\u5A1C\u5A1C\u9910\u996E\u5A31\u4E50\u6709\u9650\u516C\u53F8","AreaBH":"013706020402","AreaMC":"\u5C71\u4E1C\u7701\u70DF\u53F0\u5E02-\u829D\u7F58\u533A-\u4E1C\u5C71\u8857\u9053\u529E\u4E8B\u5904-\u6D77\u5CB8\u8DEF\u793E\u533A","Address":"\u829D\u7F58\u533A\u5357\u5927\u8857303\u53F7","MLng":"121.41135","MLat":"37.544026","TypeBH":"01","TypeMC":"\u6D88\u9632\u5B89\u5168\u91CD\u70B9\u5355\u4F4D","FireManagerTel":"13365350999"},{"ID":"798","MC":"\u9F99\u53E3\u5E02\u94F6\u6CB3\u7535\u5F71\u653E\u6620\u6709\u9650\u516C\u53F8","AreaBH":"0137068102","AreaMC":"\u4E1C\u83B1\u8857\u9053\u529E\u4E8B\u5904","Address":"\u9F99\u53E3\u5E02\u6587\u5316\u5E7F\u573A","MLng":"120.518322","MLat":"37.645552","TypeBH":"03","TypeMC":"\u4E5D\u5C0F\u573A\u6240","FireManagerTel":"13954521883"},{"ID":"801","MC":"\u70DF\u53F0\u6E14\u4EBA\u7801\u5934\u6295\u8D44\u6709\u9650\u516C\u53F8\u65C5\u6E38\u7BA1\u7406\u5206\u516C\u53F8\u6D77\u660C\u9CB8\u9CA8\u9986","AreaBH":"013706130404","AreaMC":"\u5C71\u4E1C\u7701\u70DF\u53F0\u5E02-\u83B1\u5C71\u533A-\u9EC4\u6D77\u8DEF\u8857\u9053\u529E\u4E8B\u5904-\u524D\u4E03\u593C\u793E\u533A","Address":"\u83B1\u5C71\u533A\u6EE8\u6D77\u4E2D\u8DEF45\u53F7","MLng":"121.45813","MLat":"37.525654","TypeBH":"01","TypeMC":"\u6D88\u9632\u5B89\u5168\u91CD\u70B9\u5355\u4F4D","FireManagerTel":"6792690"},{"ID":"816","MC":"\u70DF\u53F0\u6C38\u4E1C\u5305\u88C5\u5236\u54C1\u6709\u9650\u516C\u53F8","AreaBH":"0137069903","AreaMC":"\u5C71\u4E1C\u7701-\u70DF\u53F0\u5E02-\u5F00\u53D1\u533A-\u5927\u5B63\u5BB6\u8857\u9053\u529E\u4E8B\u5904","Address":"\u70DF\u53F0\u5E02\u5F00\u53D1\u533A\u5927\u5B63\u5BB6\u5317\u4EAC\u5317\u8DEF59\u53F7","MLng":"121.070228","MLat":"37.682593","TypeBH":"01","TypeMC":"\u6D88\u9632\u5B89\u5168\u91CD\u70B9\u5355\u4F4D","FireManagerTel":"6978688"},{"ID":"14923","MC":"\u70DF\u53F0\u5E02\u5BB6\u5BB6\u60A6\u8D85\u5E02\u6709\u9650\u516C\u53F8\uFF08\u83B1\u5DDE\u91D1\u57CE\u5E97\uFF09","AreaBH":"0137068310","AreaMC":"\u5C71\u4E1C\u7701-\u70DF\u53F0\u5E02-\u83B1\u5DDE\u5E02-\u91D1\u57CE\u9547","Address":"","MLng":"120.117716","MLat":"37.427448","TypeBH":"03","TypeMC":"\u4E5D\u5C0F\u573A\u6240","FireManagerTel":"15054553986"},{"ID":"15004","MC":"\u957F\u5C9B\u957F\u901A\u5927\u9152\u5E97","AreaBH":"0137063401","AreaMC":"\u5C71\u4E1C\u7701-\u70DF\u53F0\u5E02-\u957F\u5C9B\u53BF-\u5357\u957F\u5C71\u8857\u9053\u529E\u4E8B\u5904","Address":"\u957F\u5C9B\u53BF\u6D77\u6E2F\u8857\uFF12\uFF19\u53F7","MLng":"120.740016","MLat":"37.932952","TypeBH":"02","TypeMC":"\u6D88\u9632\u5B89\u5168\u4E00\u822C\u5355\u4F4D","FireManagerTel":""},{"ID":"15021","MC":"\u5C71\u4E1C\u70DF\u53F0\u70DF\u8349\u6709\u9650\u516C\u53F8\u957F\u5C9B\u8425\u9500\u90E8","AreaBH":"0137063401","AreaMC":"\u5C71\u4E1C\u7701-\u70DF\u53F0\u5E02-\u957F\u5C9B\u53BF-\u5357\u957F\u5C71\u8857\u9053\u529E\u4E8B\u5904","Address":"\u957F\u5C9B\u53BF\u901A\u6D77\u8DEF\uFF14\uFF12\u53F7","MLng":"120.739623","MLat":"37.920399","TypeBH":"02","TypeMC":"\u6D88\u9632\u5B89\u5168\u4E00\u822C\u5355\u4F4D","FireManagerTel":""},{"ID":"15079","MC":"\u5F90\u5BB6\u5E97\u4E2D\u5FC3\u536B\u751F\u9662","AreaBH":"0137068709","AreaMC":"\u5C71\u4E1C\u7701-\u70DF\u53F0\u5E02-\u6D77\u9633\u5E02-\u5F90\u5BB6\u5E97\u9547","Address":"","MLng":"121.006206","MLat":"37.094347","TypeBH":"03","TypeMC":"\u4E5D\u5C0F\u573A\u6240","FireManagerTel":""},{"ID":"15118","MC":"\u53D1\u57CE\u4E2D\u5FC3\u536B\u751F\u9662","AreaBH":"0137068708","AreaMC":"\u5C71\u4E1C\u7701-\u70DF\u53F0\u5E02-\u6D77\u9633\u5E02-\u53D1\u57CE\u9547","Address":"","MLng":"120.996504","MLat":"37.007826","TypeBH":"03","TypeMC":"\u4E5D\u5C0F\u573A\u6240","FireManagerTel":""},{"ID":"15121","MC":"\u6D77\u9633\u6DFC\u76FE\u7269\u8054\u6280\u672F\u6709\u9650\u516C\u53F8","AreaBH":"0137068715","AreaMC":"\u5C71\u4E1C\u7701-\u70DF\u53F0\u5E02-\u6D77\u9633\u5E02-\u7ECF\u6D4E\u6280\u672F\u5F00\u53D1\u533A","Address":"\u6D77\u9633\u5E02\u4E1C\u51E4\u8DEF128\u53F7\u51859\u533A102\u5BA4","MLng":"121.209032","MLat":"36.76654","TypeBH":"03","TypeMC":"\u4E5D\u5C0F\u573A\u6240","FireManagerTel":""},{"ID":"15133","MC":"\u632F\u534E\u91CF\u8D29\u6162\u57CE\u5B81\u6D77\u5E97","AreaBH":"01370612","AreaMC":"\u5C71\u4E1C\u7701-\u70DF\u53F0\u5E02-\u725F\u5E73\u533A","Address":"\u65B0\u57CE\u5927\u8857918\u53F7","MLng":"121.569894","MLat":"37.409113","TypeBH":"03","TypeMC":"\u4E5D\u5C0F\u573A\u6240","FireManagerTel":"13245350575"},{"ID":"15182","MC":"\u51DD\u6708\u7F51\u5427","AreaBH":"013706850203","AreaMC":"\u5C71\u4E1C\u7701-\u70DF\u53F0\u5E02-\u62DB\u8FDC\u5E02-\u62DB\u8FDC\u5E02\u7F57\u5CF0\u8857\u9053\u529E-\u5065\u5EB7\u533A","Address":"\u62DB\u8FDC\u5E02\u5E9C\u524D\u8DEF9\u53F7","MLng":"120.406439","MLat":"37.367157","TypeBH":"03","TypeMC":"\u4E5D\u5C0F\u573A\u6240","FireManagerTel":"18563856666"},{"ID":"15184","MC":"\u5C0F\u4E11\u7F51\u5427","AreaBH":"013706850203","AreaMC":"\u5C71\u4E1C\u7701-\u70DF\u53F0\u5E02-\u62DB\u8FDC\u5E02-\u62DB\u8FDC\u5E02\u7F57\u5CF0\u8857\u9053\u529E-\u5065\u5EB7\u533A","Address":"\u62DB\u8FDC\u5E02\u6E29\u6CC9\u8DEF319\u53F7","MLng":"120.405162","MLat":"37.369356","TypeBH":"03","TypeMC":"\u4E5D\u5C0F\u573A\u6240","FireManagerTel":"18596152551"},{"ID":"15194","MC":"\u62DB\u8FDC\u5E02\u8D85\u97F3\u901F\u7F51\u5427","AreaBH":"013706850202","AreaMC":"\u5C71\u4E1C\u7701-\u70DF\u53F0\u5E02-\u62DB\u8FDC\u5E02-\u62DB\u8FDC\u5E02\u7F57\u5CF0\u8857\u9053\u529E-\u6587\u5316\u533A","Address":"\u62DB\u8FDC\u5E02\u7F57\u5CF0\u529E\u90ED\u5BB6\u57E0\u6751\u5341\u5B57\u8DEF\u53E3\u5357","MLng":"120.401501","MLat":"37.325274","TypeBH":"03","TypeMC":"\u4E5D\u5C0F\u573A\u6240","FireManagerTel":"13184002798"},{"ID":"15257","MC":"\u62DB\u8FDC\u5E02\u5929\u62D3\u7F51\u5427","AreaBH":"013706850204","AreaMC":"\u5C71\u4E1C\u7701-\u70DF\u53F0\u5E02-\u62DB\u8FDC\u5E02-\u62DB\u8FDC\u5E02\u7F57\u5CF0\u8857\u9053\u529E-\u6668\u949F\u533A","Address":"\u62DB\u8FDC\u5E02\u91D1\u57CE\u8DEF\u91D1\u57CE\u65B0\u6751\u95E8\u5E02\u623F","MLng":"120.399821","MLat":"37.361839","TypeBH":"03","TypeMC":"\u4E5D\u5C0F\u573A\u6240","FireManagerTel":"13553121408"},{"ID":"15262","MC":"\u70DF\u53F0\u4E1A\u6797\u7EBA\u7EC7\u5370\u67D3\u6709\u9650\u8D23\u4EFB\u516C\u53F8","AreaBH":"0137069701","AreaMC":"\u5C71\u4E1C\u7701-\u70DF\u53F0\u5E02-\u9AD8\u65B0\u533A-\u9A6C\u5C71\u8857\u9053\u529E\u4E8B\u5904","Address":"\u9AD8\u65B0\u533A\u7EAC\u4E94\u8DEF17\u53F7","MLng":"121.540515","MLat":"37.417666","TypeBH":"02","TypeMC":"\u6D88\u9632\u5B89\u5168\u4E00\u822C\u5355\u4F4D","FireManagerTel":"13963895608"},{"ID":"15272","MC":"\u62DB\u8FDC\u5E02\u91D1\u724C\u7F51\u5496","AreaBH":"013706850204","AreaMC":"\u5C71\u4E1C\u7701-\u70DF\u53F0\u5E02-\u62DB\u8FDC\u5E02-\u62DB\u8FDC\u5E02\u7F57\u5CF0\u8857\u9053\u529E-\u6668\u949F\u533A","Address":"\u62DB\u8FDC\u5E02\u7F57\u5CF0\u8DEF\u9053\u53E3\u6751\u59D4","MLng":"120.408737","MLat":"37.360449","TypeBH":"03","TypeMC":"\u4E5D\u5C0F\u573A\u6240","FireManagerTel":"18563855666"},{"ID":"15285","MC":"\u62DB\u8FDC\u5E02\u65B0\u94B1\u67DC\u5A31\u4E50\u57CE","AreaBH":"013706850205","AreaMC":"\u5C71\u4E1C\u7701-\u70DF\u53F0\u5E02-\u62DB\u8FDC\u5E02-\u62DB\u8FDC\u5E02\u7F57\u5CF0\u8857\u9053\u529E-\u9B41\u661F\u897F\u533A","Address":"\u62DB\u8FDC\u5E02\u7F57\u5CF0\u8DEF95\u53F7","MLng":"120.40836","MLat":"37.356884","TypeBH":"02","TypeMC":"\u6D88\u9632\u5B89\u5168\u4E00\u822C\u5355\u4F4D","FireManagerTel":"8151888"},{"ID":"15350","MC":"\u4E30\u96F7\u5546\u52A1\u5BBE\u9986","AreaBH":"013706851301","AreaMC":"\u5C71\u4E1C\u7701-\u70DF\u53F0\u5E02-\u62DB\u8FDC\u5E02-\u62DB\u8FDC\u5E02\u590F\u7538\u9547-\u65B0\u6751\u5357\u6751","Address":"\u62DB\u8FDC\u5E02\u590F\u7538\u9547\u65B0\u5357\u6751","MLng":"120.387218","MLat":"37.193613","TypeBH":"03","TypeMC":"\u4E5D\u5C0F\u573A\u6240","FireManagerTel":"8443999"},{"ID":"15441","MC":"\u65F6\u5C1A\u7F51\u5427","AreaBH":"013706850102","AreaMC":"\u5C71\u4E1C\u7701-\u70DF\u53F0\u5E02-\u62DB\u8FDC\u5E02-\u62DB\u8FDC\u5E02\u6CC9\u5C71\u8857\u9053\u529E-\u4E1C\u5173\u6751","Address":"\u62DB\u8FDC\u5E02\u6CB3\u897F\u8DEF63\u53F7","MLng":"120.41529","MLat":"37.368828","TypeBH":"03","TypeMC":"\u4E5D\u5C0F\u573A\u6240","FireManagerTel":"13589850388"},{"ID":"15556","MC":"\u5357\u9662\u7EFC\u5408\u5546\u5E97","AreaBH":"01370685092C","AreaMC":"\u5C71\u4E1C\u7701-\u70DF\u53F0\u5E02-\u62DB\u8FDC\u5E02-\u62DB\u8FDC\u5E02\u961C\u5C71\u9547-\u5357\u9662\u5E84\u6751","Address":"","MLng":"120.535816","MLat":"37.323409","TypeBH":"03","TypeMC":"\u4E5D\u5C0F\u573A\u6240","FireManagerTel":""},{"ID":"15664","MC":"\u62DB\u8FDC\u5E02\u4E91\u6D77\u5BB6\u7EBA\u6709\u9650\u516C\u53F8","AreaBH":"013706850233","AreaMC":"\u5C71\u4E1C\u7701-\u70DF\u53F0\u5E02-\u62DB\u8FDC\u5E02-\u62DB\u8FDC\u5E02\u7F57\u5CF0\u8857\u9053\u529E-\u9633\u5149\u5C45\u59D4\u4F1A","Address":"\u62DB\u8FDC\u5E02\u91D1\u57CE\u8DEF169\u53F7","MLng":"120.400356","MLat":"37.352175","TypeBH":"03","TypeMC":"\u4E5D\u5C0F\u573A\u6240","FireManagerTel":"13101256798"},{"ID":"15741","MC":"\u8F9B\u5E84\u6C7D\u8F66\u7AD9","AreaBH":"013706850603","AreaMC":"\u5C71\u4E1C\u7701-\u70DF\u53F0\u5E02-\u62DB\u8FDC\u5E02-\u62DB\u8FDC\u5E02\u8F9B\u5E84\u9547-\u8F9B\u5E84\u897F\u5317","Address":"\u62DB\u8FDC\u5E02\u8F9B\u5E84\u9547\u897F\u5317\u6751","MLng":"120.236242","MLat":"37.503361","TypeBH":"03","TypeMC":"\u4E5D\u5C0F\u573A\u6240","FireManagerTel":"13953525129"},{"ID":"1530","MC":"\u4E2D\u56FD\u94F6\u884C\u80A1\u4EFD\u6709\u9650\u516C\u53F8\u83B1\u5DDE\u652F\u884C","AreaBH":"0137068302","AreaMC":"\u6C38\u5B89\u8DEF\u8857\u9053\u529E\u4E8B\u5904","Address":"\u83B1\u5DDE\u5E02\u83B1\u5DDE\u5317\u8DEF733\u53F7","MLng":"119.94609","MLat":"37.193374","TypeBH":"01","TypeMC":"\u6D88\u9632\u5B89\u5168\u91CD\u70B9\u5355\u4F4D","FireManagerTel":"13964506568"},{"ID":"1555","MC":"\u6D77\u9633\u5E02\u4EBA\u6C11\u533B\u9662","AreaBH":"01370687","AreaMC":"\u6D77\u9633\u5E02","Address":"\u6D77\u9633\u8DEF73\u53F7","MLng":"121.175093","MLat":"36.786142","TypeBH":"01","TypeMC":"\u6D88\u9632\u5B89\u5168\u91CD\u70B9\u5355\u4F4D","FireManagerTel":"3255075"},{"ID":"1587","MC":"\u6816\u971E\u5E02\u73BA\u5C71\u6DB2\u5316\u6C14\u5206\u516C\u53F8","AreaBH":"013706860105","AreaMC":"\u5C71\u4E1C\u7701-\u70DF\u53F0\u5E02-\u6816\u971E\u5E02-\u7FE0\u5C4F\u8857\u9053\u529E\u4E8B\u5904-\u57CE\u5173\u793E\u533A","Address":"\u6816\u971E\u5E02\u8DC3\u8FDB\u8DEF\u897F\u53F0\u885756\u53F7","MLng":"120.829578","MLat":"37.310044","TypeBH":"02","TypeMC":"\u6D88\u9632\u5B89\u5168\u4E00\u822C\u5355\u4F4D","FireManagerTel":"13963815823"},{"ID":"1595","MC":"\u4E2D\u56FD\u5DE5\u5546\u94F6\u884C\u6D77\u9633\u5E02\u652F\u884C","AreaBH":"0137068702","AreaMC":"\u5C71\u4E1C\u7701-\u70DF\u53F0\u5E02-\u6D77\u9633\u5E02-\u4E1C\u6751\u8857\u9053\u529E\u4E8B\u5904","Address":"\u6D77\u653F\u8DEF59\u53F7","MLng":"121.167427","MLat":"36.783754","TypeBH":"01","TypeMC":"\u6D88\u9632\u5B89\u5168\u91CD\u70B9\u5355\u4F4D","FireManagerTel":"3223672"},{"ID":"1601","MC":"\u70DF\u53F0\u798F\u8FBE\u97F3\u54CD\u6709\u9650\u516C\u53F8","AreaBH":"013706130707","AreaMC":"\u5C71\u4E1C\u7701-\u70DF\u53F0\u5E02-\u83B1\u5C71\u533A-\u83B1\u5C71\u7ECF\u6D4E\u5F00\u53D1\u533A-\u4E1C\u9A6C\u5BB6\u90FD\u6751","Address":"\u83B1\u5C71\u533A\u76DB\u6CC9\u5DE5\u4E1A\u56ED\u4E1C\u5B9D\u8DEF9\u53F7","MLng":"121.424791","MLat":"37.443041","TypeBH":"03","TypeMC":"\u4E5D\u5C0F\u573A\u6240","FireManagerTel":"13371350019"},{"ID":"1621","MC":"\u70DF\u53F0\u78A7\u6D77\u996D\u5E97","AreaBH":"0137060209","AreaMC":"\u5C71\u4E1C\u7701\u70DF\u53F0\u5E02-\u829D\u7F58\u533A-\u5411\u9633\u8857\u9053\u529E\u4E8B\u5904","Address":"\u70DF\u53F0\u5E02\u5357\u5927\u8857236\u53F7","MLng":"121.399264","MLat":"37.545003","TypeBH":"01","TypeMC":"\u6D88\u9632\u5B89\u5168\u91CD\u70B9\u5355\u4F4D","FireManagerTel":"18660008585"},{"ID":"1643","MC":"\u70DF\u53F0\u5C71\u5BBE\u9986\u91D1\u6D77\u6E7E\u9152\u5E97","AreaBH":"0137060209","AreaMC":"\u5C71\u4E1C\u7701-\u70DF\u53F0\u5E02-\u829D\u7F58\u533A-\u5411\u9633\u8857\u9053\u529E\u4E8B\u5904","Address":"\u70DF\u53F0\u5E02\u829D\u7F58\u533A\u6D77\u5CB8\u8DEF34\u53F7","MLng":"121.410372","MLat":"37.554253","TypeBH":"01","TypeMC":"\u6D88\u9632\u5B89\u5168\u91CD\u70B9\u5355\u4F4D","FireManagerTel":"66369999"},{"ID":"1653","MC":"\u83B1\u9633\u5E02\u798F\u513F\u767E\u5BB6\u7535\u6709\u9650\u516C\u53F8","AreaBH":"0137068201","AreaMC":"\u83B1\u9633\u5E02-\u57CE\u53A2\u8857\u9053\u529E\u4E8B\u5904","Address":"\u5BCC\u6C34\u5317\u8DEF68\u53F7","MLng":"120.706374","MLat":"36.974758","TypeBH":"01","TypeMC":"\u6D88\u9632\u5B89\u5168\u91CD\u70B9\u5355\u4F4D","FireManagerTel":"7800299"},{"ID":"1674","MC":"\u6816\u971E\u5E02\u725F\u6C0F\u5E84\u56ED\u7BA1\u7406\u5904","AreaBH":"013706860205","AreaMC":"\u5C71\u4E1C\u7701-\u70DF\u53F0\u5E02-\u6816\u971E\u5E02-\u5E84\u56ED\u8857\u9053\u529E\u4E8B\u5904-\u53E4\u9547\u90FD\u793E\u533A","Address":"\u6816\u971E\u5E02\u971E\u5149\u8DEF\u5E84\u56ED\u5357\u88576\u53F7","MLng":"120.839286","MLat":"37.325636","TypeBH":"01","TypeMC":"\u6D88\u9632\u5B89\u5168\u91CD\u70B9\u5355\u4F4D","FireManagerTel":"13589793694"},{"ID":"41364","MC":"\u70DF\u53F0\u739B\u96C5\u5065\u8EAB\u6709\u9650\u516C\u53F8","AreaBH":"01370611","AreaMC":"\u5C71\u4E1C\u7701-\u70DF\u53F0\u5E02-\u798F\u5C71\u533A","Address":"\u798F\u6D77\u8DEF\u9E3F\u798F\u540D\u57CE\u632F\u534E\u5546\u53A6\u4E8C\u697C","MLng":"121.454239","MLat":"37.470045","TypeBH":"01","TypeMC":"\u6D88\u9632\u5B89\u5168\u91CD\u70B9\u5355\u4F4D","FireManagerTel":"13589769567"},{"ID":"41365","MC":"\u592A\u9633\u90E8\u843D\u6E38\u6CF3\u4E2D\u5FC3","AreaBH":"01370611","AreaMC":"\u5C71\u4E1C\u7701-\u70DF\u53F0\u5E02-\u798F\u5C71\u533A","Address":"\u6C38\u8FBE\u8857952\u53F7","MLng":"121.257322","MLat":"37.528903","TypeBH":"03","TypeMC":"\u4E5D\u5C0F\u573A\u6240","FireManagerTel":"13589769567"},{"ID":"41512","MC":"\u5C71\u4E1C\u91D1\u6E90\u5370\u5237\u6709\u9650\u516C\u53F8","AreaBH":"01370697","AreaMC":"\u5C71\u4E1C\u7701-\u70DF\u53F0\u5E02-\u9AD8\u65B0\u533A","Address":"\u7ECF\u4E09\u8DEF30\u53F7","MLng":"121.458012","MLat":"37.466007","TypeBH":"02","TypeMC":"\u6D88\u9632\u5B89\u5168\u4E00\u822C\u5355\u4F4D","FireManagerTel":""},{"ID":"41513","MC":"\u5C71\u4E1C\u56FD\u548C\u5802\u5236\u836F\u6709\u9650\u516C\u53F8","AreaBH":"01370697","AreaMC":"\u5C71\u4E1C\u7701-\u70DF\u53F0\u5E02-\u9AD8\u65B0\u533A","Address":"\u7ECF\u4E09\u8DEF36\u53F7","MLng":"121.528105","MLat":"37.410846","TypeBH":"02","TypeMC":"\u6D88\u9632\u5B89\u5168\u4E00\u822C\u5355\u4F4D","FireManagerTel":"15550646741"},{"ID":"41514","MC":"\u6E05\u6CC9\u5E7C\u513F\u56ED","AreaBH":"01370611","AreaMC":"\u5C71\u4E1C\u7701-\u70DF\u53F0\u5E02-\u798F\u5C71\u533A","Address":"\u9890\u666F\u56ED\u5C0F\u533A","MLng":"121.249381","MLat":"37.517011","TypeBH":"03","TypeMC":"\u4E5D\u5C0F\u573A\u6240","FireManagerTel":"18865573121"},{"ID":"41569","MC":"\u6816\u971E\u9633\u5149\u670D\u9970","AreaBH":"01370686","AreaMC":"\u5C71\u4E1C\u7701-\u70DF\u53F0\u5E02-\u6816\u971E\u5E02","Address":"\u8DC3\u8FDB\u8DEF72\u53F7","MLng":"120.822293","MLat":"37.309636","TypeBH":"03","TypeMC":"\u4E5D\u5C0F\u573A\u6240","FireManagerTel":"13562598965"},{"ID":"981","MC":"\u70DF\u53F0\u5965\u4F73\u978B\u4E1A\u6709\u9650\u516C\u53F8","AreaBH":"0137068202","AreaMC":"\u51AF\u683C\u5E84\u8857\u9053\u529E\u4E8B\u5904","Address":"\u5F00\u53D1\u533A\u9F99\u95E8\u897F\u8DEF","MLng":"120.644022","MLat":"36.953707","TypeBH":"01","TypeMC":"\u6D88\u9632\u5B89\u5168\u91CD\u70B9\u5355\u4F4D","FireManagerTel":"0535-3360089"},{"ID":"990","MC":"\u5C71\u4E1C\u5927\u67F4\u7F38\u4F53\u7F38\u76D6\u80A1\u4EFD\u6709\u9650\u516C\u53F8","AreaBH":"0137068202","AreaMC":"\u51AF\u683C\u5E84\u8857\u9053\u529E\u4E8B\u5904","Address":"\u5BCC\u5C71\u8DEF","MLng":"120.65132","MLat":"36.946026","TypeBH":"01","TypeMC":"\u6D88\u9632\u5B89\u5168\u91CD\u70B9\u5355\u4F4D","FireManagerTel":"0535-7363708"},{"ID":"1002","MC":"\u5C71\u4E1C\u8363\u987A\u978B\u4E1A\u80A1\u4EFD\u6709\u9650\u516C\u53F8","AreaBH":"0137068202","AreaMC":"\u5C71\u4E1C\u7701-\u70DF\u53F0\u5E02-\u83B1\u9633\u5E02-\u51AF\u683C\u5E84\u8857\u9053\u529E\u4E8B\u5904","Address":"\u83B1\u9633\u5E02\u9F99\u95E8\u897F\u8DEF183\u53F7","MLng":"120.647144","MLat":"36.954757","TypeBH":"01","TypeMC":"\u6D88\u9632\u5B89\u5168\u91CD\u70B9\u5355\u4F4D","FireManagerTel":"13963812006"},{"ID":"1050","MC":"\u70DF\u53F0\u53EA\u695A\u836F\u4E1A\u6709\u9650\u516C\u53F8","AreaBH":"013706021009","AreaMC":"\u5C71\u4E1C\u7701\u70DF\u53F0\u5E02-\u829D\u7F58\u533A-\u53EA\u695A\u8857\u9053\u529E\u4E8B\u5904-\u53EA\u695A ","Address":"\u70DF\u53F0\u829D\u7F58\u533A\u70DF\u798F\u8DEF1\u53F7","MLng":"121.315808","MLat":"37.542465","TypeBH":"01","TypeMC":"\u6D88\u9632\u5B89\u5168\u91CD\u70B9\u5355\u4F4D","FireManagerTel":"13793536277"},{"ID":"1058","MC":"\u70DF\u53F0\u5E02\u516C\u4EA4\u96C6\u56E2\u5317\u9A6C\u8DEF\u6C7D\u8F66\u7AD9","AreaBH":"013706020803","AreaMC":"\u5C71\u4E1C\u7701\u70DF\u53F0\u5E02-\u829D\u7F58\u533A-\u901A\u4F38\u8857\u9053\u529E\u4E8B\u5904-\u614E\u793C\u793E\u533A","Address":"\u829D\u7F58\u533A\u5317\u9A6C\u8DEF106\u4ED81\u53F7","MLng":"121.38509","MLat":"37.555069","TypeBH":"02","TypeMC":"\u6D88\u9632\u5B89\u5168\u4E00\u822C\u5355\u4F4D","FireManagerTel":"13361385702"},{"ID":"1063","MC":"\u70DF\u53F0\u4E2D\u745E\u5316\u5DE5\u6709\u9650\u516C\u53F8","AreaBH":"0137068202","AreaMC":"\u51AF\u683C\u5E84\u8857\u9053\u529E\u4E8B\u5904","Address":"\u7ECF\u6D4E\u5F00\u53D1\u533A\u5BCC\u5C71\u8DEF100\u53F7","MLng":"120.646614","MLat":"36.945283","TypeBH":"01","TypeMC":"\u6D88\u9632\u5B89\u5168\u91CD\u70B9\u5355\u4F4D","FireManagerTel":"0535-7967878"},{"ID":"1097","MC":"\u70DF\u53F0\u4E1C\u65B9\u86CB\u767D\u79D1\u6280\u6709\u9650\u516C\u53F8","AreaBH":"0137068503","AreaMC":"\u62DB\u8FDC\u5E02-\u62DB\u8FDC\u5E02\u68A6\u829D\u8857\u9053\u529E","Address":"\u62DB\u8FDC\u5E02\u91D1\u57CE\u8DEF668\u53F7","MLng":"120.395761","MLat":"37.414238","TypeBH":"01","TypeMC":"\u6D88\u9632\u5B89\u5168\u91CD\u70B9\u5355\u4F4D","FireManagerTel":"18663822988"},{"ID":"1114","MC":"\u70DF\u53F0\u4E2D\u6D77\u65E5\u5347\u9152\u5E97\u6709\u9650\u516C\u53F8","AreaBH":"013706020704","AreaMC":"\u5C71\u4E1C\u7701\u70DF\u53F0\u5E02-\u829D\u7F58\u533A-\u5947\u5C71\u8857\u9053\u529E\u4E8B\u5904-\u8FCE\u4E1C\u793E\u533A","Address":"\u70DF\u53F0\u5E02\u829D\u7F58\u533A\u73AF\u5C71\u8DEF36\u53F7","MLng":"121.41917","MLat":"37.536543","TypeBH":"02","TypeMC":"\u6D88\u9632\u5B89\u5168\u4E00\u822C\u5355\u4F4D","FireManagerTel":"18753534527"},{"ID":"1142","MC":"\u9F99\u53E3\u5E02\u4E2D\u533B\u533B\u9662","AreaBH":"0137068102","AreaMC":"\u5C71\u4E1C\u7701-\u70DF\u53F0\u5E02-\u9F99\u53E3\u5E02-\u4E1C\u83B1\u8857\u9053\u529E\u4E8B\u5904","Address":"\u9F99\u53E3\u5E02\u4E1C\u57CE\u533A\u82B1\u6728\u5170\u8857183\u53F7","MLng":"120.533368","MLat":"37.653145","TypeBH":"01","TypeMC":"\u6D88\u9632\u5B89\u5168\u91CD\u70B9\u5355\u4F4D","FireManagerTel":"13963867909"},{"ID":"1152","MC":"\u70DF\u53F0\u5E02\u5A01\u5229\u53D1\u98DF\u54C1\u6709\u9650\u516C\u53F8","AreaBH":"013706021305","AreaMC":"\u5C71\u4E1C\u7701\u70DF\u53F0\u5E02-\u829D\u7F58\u533A-\u5367\u9F99\u5DE5\u4E1A\u56ED  -\u521D\u5BB6","Address":"\u70DF\u53F0\u5E02\u829D\u7F58\u533A\u5367\u9F99\u5DE5\u4E1A\u56ED\u5367\u9F99\u897F\u8DEF6\u53F7","MLng":"121.371374","MLat":"37.489041","TypeBH":"02","TypeMC":"\u6D88\u9632\u5B89\u5168\u4E00\u822C\u5355\u4F4D","FireManagerTel":"18562211618"},{"ID":"1169","MC":"\u5C71\u4E1C\u6C38\u76CA\u96C6\u56E2\u6709\u9650\u516C\u53F8","AreaBH":"0137068213","AreaMC":"\u83B1\u9633\u5E02-\u7F8A\u90E1\u9547","Address":"\u5A01\u9752\u9AD8\u901F\u7F8A\u90E1\u7AD9\u4E1C","MLng":"120.836298","MLat":"36.665956","TypeBH":"01","TypeMC":"\u6D88\u9632\u5B89\u5168\u91CD\u70B9\u5355\u4F4D","FireManagerTel":"18863815698"},{"ID":"1182","MC":"\u70DF\u53F0\u5E02\u5B9E\u9A8C\u4E2D\u5B66","AreaBH":"01370611","AreaMC":"\u798F\u5C71\u533A","Address":"\u798F\u5C71\u533A\u5929\u5E9C\u8857666\u53F7","MLng":"121.275882","MLat":"37.526892","TypeBH":"01","TypeMC":"\u6D88\u9632\u5B89\u5168\u91CD\u70B9\u5355\u4F4D","FireManagerTel":"15552211055"},{"ID":"1196","MC":"\u5BCC\u58EB\u5EB7\u7CBE\u5BC6\u7535\u5B50\uFF08\u70DF\u53F0\uFF09\u6709\u9650\u516C\u53F8","AreaBH":"0137069904","AreaMC":"\u5C71\u4E1C\u7701-\u70DF\u53F0\u5E02-\u5F00\u53D1\u533A-\u53E4\u73B0\u8857\u9053\u529E\u4E8B\u5904","Address":"\u70DF\u53F0\u5E02\u5F00\u53D1\u533A\u5BCC\u58EB\u5EB7\u5DE5\u4E1A\u56EDC\u533A","MLng":"121.129866","MLat":"37.629455","TypeBH":"01","TypeMC":"\u6D88\u9632\u5B89\u5168\u91CD\u70B9\u5355\u4F4D","FireManagerTel":"0535-2168888-77595"},{"ID":"1221","MC":"\u83B1\u9633\u5E02\u6C5F\u6CE2\u5236\u836F\u6709\u9650\u8D23\u4EFB\u516C\u53F8","AreaBH":"0137068202","AreaMC":"\u83B1\u9633\u5E02-\u51AF\u683C\u5E84\u8857\u9053\u529E\u4E8B\u5904","Address":"\u9686\u8302\u8857\u4E2D\u6BB5","MLng":"120.665682","MLat":"36.965923","TypeBH":"01","TypeMC":"\u6D88\u9632\u5B89\u5168\u91CD\u70B9\u5355\u4F4D","FireManagerTel":"13906452567"},{"ID":"1233","MC":"\u70DF\u53F0\u8212\u9A70\u5BA2\u8F66\u6709\u9650\u8D23\u4EFB\u516C\u53F8","AreaBH":"0137068202","AreaMC":"\u83B1\u9633\u5E02-\u51AF\u683C\u5E84\u8857\u9053\u529E\u4E8B\u5904","Address":"\u9F99\u95E8\u897F\u8DEF259\u53F7","MLng":"120.623474","MLat":"36.945622","TypeBH":"01","TypeMC":"\u6D88\u9632\u5B89\u5168\u91CD\u70B9\u5355\u4F4D","FireManagerTel":"0535-7458020"},{"ID":"1238","MC":"\u9E3F\u5BCC\u9526\u7CBE\u5BC6\u7535\u5B50\uFF08\u70DF\u53F0\uFF09\u6709\u9650\u516C\u53F8","AreaBH":"0137069904","AreaMC":"\u5C71\u4E1C\u7701-\u70DF\u53F0\u5E02-\u5F00\u53D1\u533A-\u53E4\u73B0\u8857\u9053\u529E\u4E8B\u5904","Address":"\u70DF\u53F0\u5E02\u5F00\u53D1\u533A\u51FA\u53E3\u52A0\u5DE5\u533AB\u533A","MLng":"121.067641","MLat":"37.678023","TypeBH":"01","TypeMC":"\u6D88\u9632\u5B89\u5168\u91CD\u70B9\u5355\u4F4D","FireManagerTel":"0535-2168888-77595 "},{"ID":"1255","MC":"\u84EC\u83B1\u9601\u7BA1\u7406\u5904","AreaBH":"013706840405","AreaMC":"\u5C71\u4E1C\u7701-\u70DF\u53F0\u5E02-\u84EC\u83B1\u5E02-\u84EC\u83B1\u9601\u8857\u9053\u529E\u4E8B\u5904-\u6C34\u57CE\u793E\u533A","Address":"\u84EC\u83B1\u5E02\u8FCE\u5BBE\u8DEF59\u53F7","MLng":"120.761535","MLat":"37.825261","TypeBH":"01","TypeMC":"\u6D88\u9632\u5B89\u5168\u91CD\u70B9\u5355\u4F4D","FireManagerTel":"13723969818"},{"ID":"1287","MC":"\u70DF\u53F0\u4E5D\u76EE\u5316\u5B66\u5236\u54C1\u6709\u9650\u516C\u53F8","AreaBH":"0137069903","AreaMC":"\u5F00\u53D1\u533A-\u5927\u5B63\u5BB6\u8857\u9053\u529E\u4E8B\u5904","Address":"\u70DF\u53F0\u5E02\u5F00\u53D1\u533A\u5927\u5B63\u5BB6\u5DE5\u4E1A\u56EDC-9\u5C0F\u533A","MLng":"121.092216","MLat":"37.652436","TypeBH":"01","TypeMC":"\u6D88\u9632\u5B89\u5168\u91CD\u70B9\u5355\u4F4D","FireManagerTel":"13002741973"},{"ID":"1304","MC":"\u70DF\u53F0\u7EEE\u4E3D\u5927\u53A6\u670D\u52A1\u6709\u9650\u516C\u53F8","AreaBH":"013706020904","AreaMC":"\u5C71\u4E1C\u7701\u70DF\u53F0\u5E02-\u829D\u7F58\u533A-\u5411\u9633\u8857\u9053\u529E\u4E8B\u5904-\u70DF\u53F0\u5C71\u793E\u533A","Address":"\u829D\u7F58\u533A\u671D\u9633\u885780\u53F74\u697C","MLng":"121.408151","MLat":"37.547495","TypeBH":"01","TypeMC":"\u6D88\u9632\u5B89\u5168\u91CD\u70B9\u5355\u4F4D","FireManagerTel":"13583552272"},{"ID":"1310","MC":"\u70DF\u53F0\u6D77\u5DDD\u5316\u5B66\u5236\u54C1\u6709\u9650\u516C\u53F8","AreaBH":"0137069903","AreaMC":"\u5F00\u53D1\u533A-\u5927\u5B63\u5BB6\u8857\u9053\u529E\u4E8B\u5904","Address":"\u70DF\u53F0\u5E02\u5F00\u53D1\u533A\u5927\u5B63\u5BB6\u5DE5\u4E1A\u56ED\u533A\u6210\u90FD\u5927\u885723\u53F7","MLng":"121.063544","MLat":"37.68225","TypeBH":"01","TypeMC":"\u6D88\u9632\u5B89\u5168\u91CD\u70B9\u5355\u4F4D","FireManagerTel":"13553106571"},{"ID":"1320","MC":"\u70DF\u53F0\u91D1\u6D77\u5316\u5DE5\u6709\u9650\u516C\u53F8","AreaBH":"013706870928","AreaMC":"\u5C71\u4E1C\u7701-\u70DF\u53F0\u5E02-\u6D77\u9633\u5E02-\u5F90\u5BB6\u5E97\u9547-\u53F0\u4E0A","Address":"\u6D77\u9633\u5E02\u5F90\u5BB6\u5E97\u9A7B\u5730","MLng":"120.98878","MLat":"37.078775","TypeBH":"01","TypeMC":"\u6D88\u9632\u5B89\u5168\u91CD\u70B9\u5355\u4F4D","FireManagerTel":"3861839"},{"ID":"1323","MC":"\u9F99\u53E3\u5E02\u9EC4\u57CE\u7545\u54CD\u56FD\u5EA6\u91CF\u8D29\u5A31\u4E50\u57CE","AreaBH":"0137068102","AreaMC":"\u4E1C\u83B1\u8857\u9053\u529E\u4E8B\u5904","Address":"\u9F99\u53E3\u5E02\u9EC4\u57CE\u901A\u6D77\u8DEF245\u53F7","MLng":"120.523806","MLat":"37.642598","TypeBH":"01","TypeMC":"\u6D88\u9632\u5B89\u5168\u91CD\u70B9\u5355\u4F4D","FireManagerTel":"15853566666"},{"ID":"23406","MC":"\u9F99\u53E3\u5E02\u5EFA\u7B51\u89C4\u5212\u8BBE\u8BA1\u9662\u6709\u9650\u516C\u53F8","AreaBH":"0137068102","AreaMC":"\u5C71\u4E1C\u7701-\u70DF\u53F0\u5E02-\u9F99\u53E3\u5E02-\u4E1C\u83B1\u8857\u9053\u529E\u4E8B\u5904","Address":"\u6C81\u56ED\u5C0F\u533A\u5357\u7EDB\u6C34\u6CB3\u4E1C\u5CB8","MLng":"120.545576","MLat":"37.63994","TypeBH":"03","TypeMC":"\u4E5D\u5C0F\u573A\u6240","FireManagerTel":""},{"ID":"23454","MC":"\u4E2D\u56FD\u79FB\u52A8\u901A\u4FE1\u96C6\u56E2\u5C71\u4E1C\u6709\u9650\u516C\u53F8\u70DF\u53F0\u5206\u516C\u53F8\uFF08\u897F\u5927\u8857\uFF09","AreaBH":"013706020105","AreaMC":"\u5C71\u4E1C\u7701-\u70DF\u53F0\u5E02-\u829D\u7F58\u533A-\u6BD3\u749C\u9876\u8857\u9053\u529E\u4E8B\u5904-\u6D77\u9632\u8425\u793E\u533A","Address":"\u897F\u5927\u8857118\u53F7","MLng":"121.387278","MLat":"37.550613","TypeBH":"02","TypeMC":"\u6D88\u9632\u5B89\u5168\u4E00\u822C\u5355\u4F4D","FireManagerTel":"13905350097"},{"ID":"24018","MC":"\u62DB\u8FDC\u5E02\u4E2D\u77F3\u6CB9\u7B2C\u5341\u4E5D\u52A0\u6CB9\u7AD9","AreaBH":"0137068503","AreaMC":"\u5C71\u4E1C\u7701-\u70DF\u53F0\u5E02-\u62DB\u8FDC\u5E02-\u62DB\u8FDC\u5E02\u68A6\u829D\u8857\u9053\u529E","Address":"\u62DB\u8FDC\u5E02\u56FD\u5927\u8DEF","MLng":"120.394741","MLat":"37.41252","TypeBH":"01","TypeMC":"\u6D88\u9632\u5B89\u5168\u91CD\u70B9\u5355\u4F4D","FireManagerTel":""},{"ID":"24020","MC":"\u9F99\u53E3\u5E02\u9F99\u65CF\u6C38\u987A\u623F\u5730\u4EA7\u5F00\u53D1\u6709\u9650\u516C\u53F8","AreaBH":"0137068102","AreaMC":"\u5C71\u4E1C\u7701-\u70DF\u53F0\u5E02-\u9F99\u53E3\u5E02-\u4E1C\u83B1\u8857\u9053\u529E\u4E8B\u5904","Address":"\u5357\u5C71\u8DEF\u4E0E\u9F99\u6CC9\u8DEF\u4EA4\u53C9\u53E3\u5317150\u7C73","MLng":"120.511382","MLat":"37.637765","TypeBH":"03","TypeMC":"\u4E5D\u5C0F\u573A\u6240","FireManagerTel":""},{"ID":"36791","MC":"\u83B1\u5DDE\u5E02\u677E\u6797\u76D0\u5316\u6709\u9650\u516C\u53F8","AreaBH":"0137068317","AreaMC":"\u5C71\u4E1C\u7701-\u70DF\u53F0\u5E02-\u83B1\u5DDE\u5E02-\u571F\u5C71\u9547","Address":"\u70DF\u53F0\u5E02\u83B1\u5DDE\u5E02\u571F\u5C71\u9547\u6D77\u6CA7\u4E09\u6751","MLng":"119.628988","MLat":"37.036348","TypeBH":"03","TypeMC":"\u4E5D\u5C0F\u573A\u6240","FireManagerTel":"15953517666"},{"ID":"36792","MC":"\u9F99\u53E3\u4E07\u548C\u6DFC\u76FE\u6F14\u793A\u7BB1","AreaBH":"01370681","AreaMC":"\u5C71\u4E1C\u7701-\u70DF\u53F0\u5E02-\u9F99\u53E3\u5E02","Address":"1","MLng":"120.470921","MLat":"37.749896","TypeBH":"03","TypeMC":"\u4E5D\u5C0F\u573A\u6240","FireManagerTel":""},{"ID":"36798","MC":"\u83B1\u5DDE\u5E02\u6FB3\u5FB7\u6C7D\u8F66\u914D\u4EF6\u6709\u9650\u516C\u53F8","AreaBH":"0137068317","AreaMC":"\u5C71\u4E1C\u7701-\u70DF\u53F0\u5E02-\u83B1\u5DDE\u5E02-\u571F\u5C71\u9547","Address":"\u70DF\u53F0\u5E02\u83B1\u5DDE\u5E02\u571F\u5C71\u9547","MLng":"119.692928","MLat":"37.063073","TypeBH":"03","TypeMC":"\u4E5D\u5C0F\u573A\u6240","FireManagerTel":""},{"ID":"36799","MC":"\u83B1\u5DDE\u5B8F\u51EF\u673A\u68B0\u6709\u9650\u516C\u53F8","AreaBH":"0137068317","AreaMC":"\u5C71\u4E1C\u7701-\u70DF\u53F0\u5E02-\u83B1\u5DDE\u5E02-\u571F\u5C71\u9547","Address":"\u5C71\u4E1C\u7701\u70DF\u53F0\u5E02\u83B1 \u5DDE\u5E02\u571F\u5C71\u9547","MLng":"119.686649","MLat":"37.097066","TypeBH":"03","TypeMC":"\u4E5D\u5C0F\u573A\u6240","FireManagerTel":"15053585522"},{"ID":"36800","MC":"\u83B1\u5DDE\u5E02\u5927\u5730\u76D0\u5316\u6709\u9650\u516C\u53F8","AreaBH":"0137068317","AreaMC":"\u5C71\u4E1C\u7701-\u70DF\u53F0\u5E02-\u83B1\u5DDE\u5E02-\u571F\u5C71\u9547","Address":"\u571F\u5C71\u9547\u94F6\u6D77\u5DE5\u4E1A\u56ED","MLng":"119.624233","MLat":"37.064568","TypeBH":"03","TypeMC":"\u4E5D\u5C0F\u573A\u6240","FireManagerTel":"15351763696"},{"ID":"36802","MC":"\u83B1\u5DDE\u4E30\u76DB\u98DF\u54C1\u6709\u9650\u516C\u53F8","AreaBH":"0137068317","AreaMC":"\u5C71\u4E1C\u7701-\u70DF\u53F0\u5E02-\u83B1\u5DDE\u5E02-\u571F\u5C71\u9547","Address":"\u5C71\u4E1C\u7701\u83B1\u5DDE\u5E02\u571F\u5C71\u9547\u4E30\u76DB\u98DF\u54C1","MLng":"119.687178","MLat":"37.066011","TypeBH":"03","TypeMC":"\u4E5D\u5C0F\u573A\u6240","FireManagerTel":"13963887780"},{"ID":"36805","MC":"\u83B1\u5DDE\u5E02\u5723\u6D77\u76D0\u5316\u6709\u9650\u516C\u53F8","AreaBH":"0137068317","AreaMC":"\u5C71\u4E1C\u7701-\u70DF\u53F0\u5E02-\u83B1\u5DDE\u5E02-\u571F\u5C71\u9547","Address":"\u83B1\u5DDE\u5E02 \u571F\u5C71\u9547","MLng":"119.69414","MLat":"37.059423","TypeBH":"03","TypeMC":"\u4E5D\u5C0F\u573A\u6240","FireManagerTel":"18660095327"},{"ID":"36821","MC":"\u83B1\u5DDE\u5E02\u94F6\u5CF0\u5316\u5DE5\u6709\u9650\u516C\u53F8","AreaBH":"0137068317","AreaMC":"\u5C71\u4E1C\u7701-\u70DF\u53F0\u5E02-\u83B1\u5DDE\u5E02-\u571F\u5C71\u9547","Address":"\u83B1\u5DDE\u5E02\u571F\u5C71\u9547\u5927\u4EFB\u5BB6\u540E","MLng":"119.693548","MLat":"37.08509","TypeBH":"03","TypeMC":"\u4E5D\u5C0F\u573A\u6240","FireManagerTel":"18660095327"},{"ID":"36823","MC":"\u83B1\u5DDE\u5E02\u745E\u514B\u76D0\u5316\u6709\u9650\u516C\u53F8","AreaBH":"0137068317","AreaMC":"\u5C71\u4E1C\u7701-\u70DF\u53F0\u5E02-\u83B1\u5DDE\u5E02-\u571F\u5C71\u9547","Address":"\u83B1\u5DDE\u5E02 \u571F\u5C71\u9547","MLng":"119.631367","MLat":"37.088979","TypeBH":"03","TypeMC":"\u4E5D\u5C0F\u573A\u6240","FireManagerTel":"13791214217"},{"ID":"36826","MC":"\u83B1\u5DDE\u5E02\u7965\u6D77\u76D0\u5316\u6709\u9650\u516C\u53F8","AreaBH":"0137068317","AreaMC":"\u5C71\u4E1C\u7701-\u70DF\u53F0\u5E02-\u83B1\u5DDE\u5E02-\u571F\u5C71\u9547","Address":"\u83B1\u5DDE\u5E02\u571F\u5C71\u9547\u5317\u94F6\u6D77\u5DE5\u4E1A\u56ED","MLng":"119.691392","MLat":"37.064244","TypeBH":"03","TypeMC":"\u4E5D\u5C0F\u573A\u6240","FireManagerTel":"18354315588"},{"ID":"36829","MC":"\u83B1\u5DDE\u5E02\u901A\u6E90\u5316\u5DE5\u6709\u9650\u516C\u53F8","AreaBH":"0137068317","AreaMC":"\u5C71\u4E1C\u7701-\u70DF\u53F0\u5E02-\u83B1\u5DDE\u5E02-\u571F\u5C71\u9547","Address":"\u83B1\u5DDE\u5E02\u571F\u5C71\u9547\u5317","MLng":"119.722724","MLat":"37.083593","TypeBH":"03","TypeMC":"\u4E5D\u5C0F\u573A\u6240","FireManagerTel":"15192357712"},{"ID":"36830","MC":"\u5C1A\u666F\u9152\u5E97","AreaBH":"0137061109","AreaMC":"\u5C71\u4E1C\u7701-\u70DF\u53F0\u5E02-\u798F\u5C71\u533A-\u6E05\u6D0B\u8857\u9053\u529E\u4E8B\u5904","Address":"\u5C71\u4E1C\u7701\u70DF\u53F0\u5E02\u798F\u5C71\u533A\u6C38\u5B89\u8857187\u53F7","MLng":"121.267239","MLat":"37.508674","TypeBH":"03","TypeMC":"\u4E5D\u5C0F\u573A\u6240","FireManagerTel":"18766502110"},{"ID":"36831","MC":"\u83B1\u5DDE\u5E02\u9F99\u57FA\u5DE5\u8D38\u5316\u5DE5\u6709\u9650\u516C\u53F8","AreaBH":"0137068317","AreaMC":"\u5C71\u4E1C\u7701-\u70DF\u53F0\u5E02-\u83B1\u5DDE\u5E02-\u571F\u5C71\u9547","Address":"\u83B1\u5DDE\u5E02\u571F\u5C71\u9547\u5927\u4EFB\u5BB6\u6751\u5317","MLng":"119.714229","MLat":"37.093239","TypeBH":"03","TypeMC":"\u4E5D\u5C0F\u573A\u6240","FireManagerTel":"13723952716"},{"ID":"36833","MC":"\u83B1\u5DDE\u946B\u745E\u5316\u5DE5\u6709\u9650\u516C\u53F8","AreaBH":"0137068317","AreaMC":"\u5C71\u4E1C\u7701-\u70DF\u53F0\u5E02-\u83B1\u5DDE\u5E02-\u571F\u5C71\u9547","Address":"\u83B1\u5DDE\u5E02\u571F\u5C71\u9547\u6D77\u6CA7\u4E8C\u6751","MLng":"119.635517","MLat":"37.048368","TypeBH":"03","TypeMC":"\u4E5D\u5C0F\u573A\u6240","FireManagerTel":"13589787371"},{"ID":"36834","MC":"\u83B1\u5DDE\u5E02\u9526\u76DB\u6E90\u76D0\u5316\u6709\u9650\u516C\u53F8","AreaBH":"0137068317","AreaMC":"\u5C71\u4E1C\u7701-\u70DF\u53F0\u5E02-\u83B1\u5DDE\u5E02-\u571F\u5C71\u9547","Address":"\u83B1\u5DDE\u5E02\u571F\u5C71\u9547\u94F6\u6D77\u5DE5\u4E1A\u56ED","MLng":"119.606446","MLat":"37.081956","TypeBH":"03","TypeMC":"\u4E5D\u5C0F\u573A\u6240","FireManagerTel":"13805457780"},{"ID":"36854","MC":"\u70DF\u53F0\u5F20\u88D5\u9152\u6587\u5316\u535A\u7269\u9986\u6709\u9650\u516C\u53F8","AreaBH":"01370602","AreaMC":"\u5C71\u4E1C\u7701-\u70DF\u53F0\u5E02-\u829D\u7F58\u533A","Address":"\u5927\u9A6C\u8DEF56\u53F7","MLng":"121.412535","MLat":"37.547489","TypeBH":"01","TypeMC":"\u6D88\u9632\u5B89\u5168\u91CD\u70B9\u5355\u4F4D","FireManagerTel":"0535-6632821"},{"ID":"36866","MC":"\u83B1\u5DDE\u8DC3\u817E\u6C7D\u8F66\u914D\u4EF6\u6709\u9650\u516C\u53F8","AreaBH":"0137068317","AreaMC":"\u5C71\u4E1C\u7701-\u70DF\u53F0\u5E02-\u83B1\u5DDE\u5E02-\u571F\u5C71\u9547","Address":"\u5C71\u4E1C\u7701\u70DF\u53F0\u5E02\u83B1\u5DDE\u5E02\u571F\u5C71\u9547\u897F\u5B59\u5BB6\u6751","MLng":"119.677837","MLat":"37.064023","TypeBH":"03","TypeMC":"\u4E5D\u5C0F\u573A\u6240","FireManagerTel":"15563877765"},{"ID":"36873","MC":"\u83B1\u5DDE\u6D77\u5BB8\u673A\u68B0\u6709\u9650\u516C\u53F8","AreaBH":"0137068317","AreaMC":"\u5C71\u4E1C\u7701-\u70DF\u53F0\u5E02-\u83B1\u5DDE\u5E02-\u571F\u5C71\u9547","Address":"\u83B1\u5DDE\u5E02\u571F\u5C71\u9547\u6768\u5BB6\u6751","MLng":"119.684053","MLat":"37.062468","TypeBH":"03","TypeMC":"\u4E5D\u5C0F\u573A\u6240","FireManagerTel":"13793506811"},{"ID":"36875","MC":"\u83B1\u5DDE\u745B\u7433\u673A\u68B0\u6709\u9650\u516C\u53F8","AreaBH":"0137068317","AreaMC":"\u5C71\u4E1C\u7701-\u70DF\u53F0\u5E02-\u83B1\u5DDE\u5E02-\u571F\u5C71\u9547","Address":"\u83B1 \u5DDE\u5E02\u571F\u5C71\u9547\u897F\u5B59\u5BB6\u6751","MLng":"119.75147","MLat":"36.999135","TypeBH":"03","TypeMC":"\u4E5D\u5C0F\u573A\u6240","FireManagerTel":"15684128763"},{"ID":"36877","MC":"\u83B1\u5DDE\u6676\u5C71\u5316\u5DE5\u6709\u9650\u516C\u53F8","AreaBH":"0137068317","AreaMC":"\u5C71\u4E1C\u7701-\u70DF\u53F0\u5E02-\u83B1\u5DDE\u5E02-\u571F\u5C71\u9547","Address":"\u83B1\u5DDE\u5E02\u571F\u5C71\u9547\u94F6\u6D77\u5DE5\u4E1A\u56ED","MLng":"119.606446","MLat":"37.081956","TypeBH":"03","TypeMC":"\u4E5D\u5C0F\u573A\u6240","FireManagerTel":"13678658444"},{"ID":"36881","MC":"\u83B1\u5DDE\u5E02\u6D77\u8FBE\u5316\u5DE5\u6709\u9650\u516C\u53F8","AreaBH":"0137068317","AreaMC":"\u5C71\u4E1C\u7701-\u70DF\u53F0\u5E02-\u83B1\u5DDE\u5E02-\u571F\u5C71\u9547","Address":"\u83B1\u5DDE\u5E02\u571F\u5C71\u9547\u94F6\u6D77\u5DE5\u4E1A\u56ED","MLng":"119.606554","MLat":"37.082028","TypeBH":"03","TypeMC":"\u4E5D\u5C0F\u573A\u6240","FireManagerTel":"18753500999"},{"ID":"36883","MC":"\u83B1\u5DDE\u8BDA\u6E90\u76D0\u5316\u6709\u9650\u516C\u53F8","AreaBH":"0137068317","AreaMC":"\u5C71\u4E1C\u7701-\u70DF\u53F0\u5E02-\u83B1\u5DDE\u5E02-\u571F\u5C71\u9547","Address":"\u83B1\u5DDE\u5E02\u571F\u5C71\u9547","MLng":"119.697455","MLat":"37.061101","TypeBH":"03","TypeMC":"\u4E5D\u5C0F\u573A\u6240","FireManagerTel":"15269555855"},{"ID":"36888","MC":"\u83B1\u5DDE\u73AF\u6D77\u5316\u5DE5\u6709\u9650\u516C\u53F8","AreaBH":"0137068317","AreaMC":"\u5C71\u4E1C\u7701-\u70DF\u53F0\u5E02-\u83B1\u5DDE\u5E02-\u571F\u5C71\u9547","Address":"\u83B1\u5DDE\u5E02\u571F\u5C71\u9547\u94F6\u6D77\u5DE5\u4E1A\u56ED","MLng":"119.606446","MLat":"37.081956","TypeBH":"03","TypeMC":"\u4E5D\u5C0F\u573A\u6240","FireManagerTel":"15266529460"},{"ID":"36889","MC":"\u83B1\u5DDE\u5E02\u5B8F\u6CFD\u5316\u5DE5\u6709\u9650\u516C\u53F8","AreaBH":"0137068317","AreaMC":"\u5C71\u4E1C\u7701-\u70DF\u53F0\u5E02-\u83B1\u5DDE\u5E02-\u571F\u5C71\u9547","Address":"\u5C71\u4E1C\u7701\u70DF\u53F0\u5E02\u571F\u5C71\u9547","MLng":"119.695802","MLat":"37.062317","TypeBH":"03","TypeMC":"\u4E5D\u5C0F\u573A\u6240","FireManagerTel":"15254500398"},{"ID":"36890","MC":"\u83B1\u5DDE\u8FD0\u6CFD\u76D0\u5316\u6709\u9650\u516C\u53F8","AreaBH":"0137068317","AreaMC":"\u5C71\u4E1C\u7701-\u70DF\u53F0\u5E02-\u83B1\u5DDE\u5E02-\u571F\u5C71\u9547","Address":"\u83B1\u5DDE\u5E02\u571F\u5C71\u9547\u94F6\u6D77\u5DE5\u4E1A\u56ED","MLng":"119.606446","MLat":"37.081956","TypeBH":"03","TypeMC":"\u4E5D\u5C0F\u573A\u6240","FireManagerTel":"15853510244"},{"ID":"20907","MC":"\u9F99\u53E3\u4E91\u4E00\u7FD4\u5546\u52A1\u9152\u5E97","AreaBH":"0137068105","AreaMC":"\u5C71\u4E1C\u7701-\u70DF\u53F0\u5E02-\u9F99\u53E3\u5E02-\u4E1C\u6C5F\u8857\u9053\u529E\u4E8B\u5904","Address":"\u9F99\u53E3\u5E02\u901A\u6D77\u8DEF\u4E1C\u6C5F\u793E\u533A\u6587\u5316\u6D3B\u52A8\u4E2D\u5FC3\u897F","MLng":"120.523159","MLat":"37.631946","TypeBH":"02","TypeMC":"\u6D88\u9632\u5B89\u5168\u4E00\u822C\u5355\u4F4D","FireManagerTel":""},{"ID":"20934","MC":"\u70DF\u53F0\u9F99\u6DA6\u6C7D\u8F66\u9500\u552E\u670D\u52A1\u6709\u9650\u516C\u53F8","AreaBH":"0137068103","AreaMC":"\u5C71\u4E1C\u7701-\u70DF\u53F0\u5E02-\u9F99\u53E3\u5E02-\u5F90\u798F\u8857\u9053\u529E\u4E8B\u5904","Address":"\u5357\u5C71\u8DEF","MLng":"120.463494","MLat":"37.662747","TypeBH":"03","TypeMC":"\u4E5D\u5C0F\u573A\u6240","FireManagerTel":""},{"ID":"20938","MC":"\u70DF\u53F0\u661F\u9890\u7F6E\u4E1A\u6709\u9650\u516C\u53F8","AreaBH":"0137069901","AreaMC":"\u5C71\u4E1C\u7701-\u70DF\u53F0\u5E02-\u5F00\u53D1\u533A-\u798F\u83B1\u5C71\u8857\u9053\u529E\u4E8B\u5904","Address":"\u957F\u6C5F\u8DEF57\u53F7","MLng":"121.256497","MLat":"37.567734","TypeBH":"01","TypeMC":"\u6D88\u9632\u5B89\u5168\u91CD\u70B9\u5355\u4F4D","FireManagerTel":"15006407501"},{"ID":"20956","MC":"\u4E5D\u91CC\u57CE\u5927\u9152\u5E97","AreaBH":"0137068108","AreaMC":"\u5C71\u4E1C\u7701-\u70DF\u53F0\u5E02-\u9F99\u53E3\u5E02-\u82A6\u5934\u9547","Address":"","MLng":"120.467554","MLat":"37.620771","TypeBH":"03","TypeMC":"\u4E5D\u5C0F\u573A\u6240","FireManagerTel":""},{"ID":"27533","MC":"\u5F00\u53D1\u533A\u9047\u5C1A\u7A7A\u95F4","AreaBH":"0137069901","AreaMC":"\u5C71\u4E1C\u7701-\u70DF\u53F0\u5E02-\u5F00\u53D1\u533A-\u798F\u83B1\u5C71\u8857\u9053\u529E\u4E8B\u5904","Address":"\u6CF0\u5C71\u8DEF55\u53F7","MLng":"121.275255","MLat":"37.569404","TypeBH":"02","TypeMC":"\u6D88\u9632\u5B89\u5168\u4E00\u822C\u5355\u4F4D","FireManagerTel":"18053532299"},{"ID":"27561","MC":"\u4E66\u9999\u5B66\u5E9C\u5E7C\u513F\u56ED","AreaBH":"01370611","AreaMC":"\u5C71\u4E1C\u7701-\u70DF\u53F0\u5E02-\u798F\u5C71\u533A","Address":"\u798F\u5C71\u533A\u6CB3\u6EE8\u8DEF\u4E1C\u5C1A\u84DD\u6E7E\u5341\u53F7\u697C","MLng":"121.290292","MLat":"37.524042","TypeBH":"03","TypeMC":"\u4E5D\u5C0F\u573A\u6240","FireManagerTel":"15564548072"},{"ID":"27562","MC":"\u9F0E\u4E30\u56ED\u5E7C\u513F\u56ED","AreaBH":"01370611","AreaMC":"\u5C71\u4E1C\u7701-\u70DF\u53F0\u5E02-\u798F\u5C71\u533A","Address":"\u798F\u5C71\u533A\u5929\u5E9C\u5C0F\u533A\u9F0E\u4E30\u5E7C\u513F\u56ED","MLng":"121.281362","MLat":"37.526337","TypeBH":"03","TypeMC":"\u4E5D\u5C0F\u573A\u6240","FireManagerTel":"13001605264"},{"ID":"27564","MC":"\u70DF\u53F0\u5E02\u5FAE\u7C73\u4E92\u8054\u7F51\u4E0A\u7F51\u670D\u52A1\u6709\u9650\u516C\u53F8","AreaBH":"01370613","AreaMC":"\u5C71\u4E1C\u7701-\u70DF\u53F0\u5E02-\u83B1\u5C71\u533A","Address":"\u70DF\u53F0\u5E02\u83B1\u5C71\u533A\u534E\u5EAD\u8DEF","MLng":"121.481004","MLat":"37.466992","TypeBH":"03","TypeMC":"\u4E5D\u5C0F\u573A\u6240","FireManagerTel":""},{"ID":"27567","MC":"\u70DF\u53F0\u592A\u9633\u91D1\u5C5E\u6709\u9650\u516C\u53F8","AreaBH":"01370611","AreaMC":"\u5C71\u4E1C\u7701-\u70DF\u53F0\u5E02-\u798F\u5C71\u533A","Address":"\u51E4\u51F0\u5C71\u8DEF162\u53F7","MLng":"121.22052","MLat":"37.522451","TypeBH":"03","TypeMC":"\u4E5D\u5C0F\u573A\u6240","FireManagerTel":"15668066180"},{"ID":"27571","MC":"\u83B1\u9633\u5E02\u9646\u6D77\u901A\u52A0\u6CB9\u4E2D\u5FC3","AreaBH":"01370682020F","AreaMC":"\u5C71\u4E1C\u7701-\u70DF\u53F0\u5E02-\u83B1\u9633\u5E02-\u51AF\u683C\u5E84\u8857\u9053\u529E\u4E8B\u5904-\u5929\u6865\u5C6F\u6751","Address":"\u83B1\u9633\u5E02\u51AF\u683C\u5E84\u8857\u9053\u529E\u4E8B\u5904\u5929\u6865\u5C6F\u6751\u5317","MLng":"120.653331","MLat":"36.957492","TypeBH":"02","TypeMC":"\u6D88\u9632\u5B89\u5168\u4E00\u822C\u5355\u4F4D","FireManagerTel":"13626926999"},{"ID":"27574","MC":"\u957F\u5C9B\u5E02\u6C49\u5EAD\u9152\u5E97","AreaBH":"01370634","AreaMC":"\u5C71\u4E1C\u7701-\u70DF\u53F0\u5E02-\u957F\u5C9B\u53BF","Address":" \u957F\u5C9B\u8FCE\u5BBE\u885769\u53F7","MLng":"120.744866","MLat":"37.925425","TypeBH":"02","TypeMC":"\u6D88\u9632\u5B89\u5168\u4E00\u822C\u5355\u4F4D","FireManagerTel":""},{"ID":"27639","MC":"\u84EC\u83B1\u5E02\u767B\u5DDE\u5BA2\u4F73\u5C45\u5546\u52A1\u5BBE\u9986","AreaBH":"0137068401","AreaMC":"\u5C71\u4E1C\u7701-\u70DF\u53F0\u5E02-\u84EC\u83B1\u5E02-\u767B\u5DDE\u8857\u9053\u529E\u4E8B\u5904","Address":"\u949F\u697C\u4E1C\u8DEF8\u53F7","MLng":"120.764661","MLat":"37.816338","TypeBH":"03","TypeMC":"\u4E5D\u5C0F\u573A\u6240","FireManagerTel":""},{"ID":"27641","MC":"\u7167\u65FA\u5E84\u9547\u4E2D\u5FC3\u5E7C\u513F\u56ED","AreaBH":"0137068206","AreaMC":"\u5C71\u4E1C\u7701-\u70DF\u53F0\u5E02-\u83B1\u9633\u5E02-\u7167\u65FA\u5E84\u9547","Address":"\u83B1\u9633\u5E02\u7167\u65FA\u5E84\u9547\u524D\u7167\u65FA\u5E84\u6751","MLng":"120.757861","MLat":"36.919048","TypeBH":"02","TypeMC":"\u6D88\u9632\u5B89\u5168\u4E00\u822C\u5355\u4F4D","FireManagerTel":"13022730157"},{"ID":"27724","MC":"\u91D1\u6CC9\u5BB6\u5177\u5927\u53A6\uFF08\u505C\u4E1A\uFF09","AreaBH":"0137060208","AreaMC":"\u5C71\u4E1C\u7701-\u70DF\u53F0\u5E02-\u829D\u7F58\u533A-\u901A\u4F38\u8857\u9053\u529E\u4E8B\u5904","Address":"\u5C71\u4E1C\u7701\u70DF\u53F0\u5E02\u829D\u7F58\u533A\u5174\u4E1A\u8DEF32\u53F7","MLng":"121.378653","MLat":"37.556432","TypeBH":"02","TypeMC":"\u6D88\u9632\u5B89\u5168\u4E00\u822C\u5355\u4F4D","FireManagerTel":"15953504832"},{"ID":"27756","MC":"\u5927\u593C\u7ACB\u6CE2\u52A0\u6CB9\u7AD9","AreaBH":"013706820701","AreaMC":"\u5C71\u4E1C\u7701-\u70DF\u53F0\u5E02-\u83B1\u9633\u5E02-\u5927\u593C\u9547-\u5927\u593C\u6751","Address":"\u5927\u593C\u9547\u9A7B\u5730","MLng":"120.827204","MLat":"36.808664","TypeBH":"03","TypeMC":"\u4E5D\u5C0F\u573A\u6240","FireManagerTel":"17096175196"},{"ID":"27801","MC":"\u83B1\u9633\u5E02\u897F\u7559\u519C\u673A\u52A0\u6CB9\u7AD9","AreaBH":"0137068218","AreaMC":"\u5C71\u4E1C\u7701-\u70DF\u53F0\u5E02-\u83B1\u9633\u5E02-\u8C2D\u683C\u5E84\u9547","Address":"\u83B1\u9633\u5E02","MLng":"120.717273","MLat":"36.985179","TypeBH":"02","TypeMC":"\u6D88\u9632\u5B89\u5168\u4E00\u822C\u5355\u4F4D","FireManagerTel":"18754548887"},{"ID":"27804","MC":"\u83B1\u9633\u5E02\u957F\u57CE\u8FD0\u8F93\u6709\u9650\u516C\u53F8\u52A0\u6CB9\u7AD9","AreaBH":"0137068201","AreaMC":"\u5C71\u4E1C\u7701-\u70DF\u53F0\u5E02-\u83B1\u9633\u5E02-\u57CE\u53A2\u8857\u9053\u529E\u4E8B\u5904","Address":"\u5C71\u4E1C\u7701\u83B1\u9633\u5E02\u57CE\u53A2\u529E\u4E8B\u5904\u9A6C\u5C71\u8DEF","MLng":"120.75295","MLat":"36.999339","TypeBH":"02","TypeMC":"\u6D88\u9632\u5B89\u5168\u4E00\u822C\u5355\u4F4D","FireManagerTel":"13685458307"},{"ID":"27805","MC":"\u83B1\u9633\u6986\u79D1\u9876\u8363\u6D9B\u52A0\u6CB9\u7AD9","AreaBH":"0137068216","AreaMC":"\u5C71\u4E1C\u7701-\u70DF\u53F0\u5E02-\u83B1\u9633\u5E02-\u6C90\u6D74\u5E97\u9547","Address":"\u83B1\u9633\u6986\u79D1\u9876\u6751\u5317100\u7C73","MLng":"120.766087","MLat":"36.984883","TypeBH":"02","TypeMC":"\u6D88\u9632\u5B89\u5168\u4E00\u822C\u5355\u4F4D","FireManagerTel":"18653582626"},{"ID":"27809","MC":"\u83B1\u9633\u5E02\u987A\u8FBE\u52A0\u6CB9\u7AD9","AreaBH":"0137068204","AreaMC":"\u5C71\u4E1C\u7701-\u70DF\u53F0\u5E02-\u83B1\u9633\u5E02-\u67CF\u6797\u5E84\u8857\u9053\u529E\u4E8B\u5904","Address":"\u83B1\u9633\u5E02\u67CF\u6797\u5E84\u67F3\u53E4\u6751\u897F200\u7C73","MLng":"120.684018","MLat":"37.012668","TypeBH":"02","TypeMC":"\u6D88\u9632\u5B89\u5168\u4E00\u822C\u5355\u4F4D","FireManagerTel":"1379353330"},{"ID":"41825","MC":" \u661F\u7F8E\u56FD\u9645\u5F71\u5546\u57CE\u2015\u6D77\u9633\u4E3D\u8FBE\u5E97","AreaBH":"0137068703","AreaMC":"\u5C71\u4E1C\u7701-\u70DF\u53F0\u5E02-\u6D77\u9633\u5E02-\u51E4\u57CE\u8857\u9053\u529E\u4E8B\u5904","Address":"\u5C71\u4E1C\u7701\u70DF\u53F0\u5E02\u6D77\u9633\u5E02","MLng":"121.223398","MLat":"36.723888","TypeBH":"02","TypeMC":"\u6D88\u9632\u5B89\u5168\u4E00\u822C\u5355\u4F4D","FireManagerTel":"15506655745"},{"ID":"41832","MC":"\u6816\u971E\u52A0\u52A0\u65B0\u98DF\u54C1\u6709\u9650\u516C\u53F8","AreaBH":"01370686","AreaMC":"\u5C71\u4E1C\u7701-\u70DF\u53F0\u5E02-\u6816\u971E\u5E02","Address":"\u6816\u971E\u7ECF\u6D4E\u5F00\u53D1\u533AC\u533A\uFF08\u677E\u5C71\u9547\uFF09","MLng":"121.454415","MLat":"37.470038","TypeBH":"03","TypeMC":"\u4E5D\u5C0F\u573A\u6240","FireManagerTel":"13853517532"},{"ID":"41868","MC":"\u70DF\u53F0\u767E\u7EB3\u745E\u6C40\u82B1\u56ED\u9152\u5E97\u6709\u9650\u516C\u53F8","AreaBH":"0137069901","AreaMC":"\u5C71\u4E1C\u7701-\u70DF\u53F0\u5E02-\u5F00\u53D1\u533A-\u798F\u83B1\u5C71\u8857\u9053\u529E\u4E8B\u5904","Address":"\u5F00\u53D1\u533A\u6D77\u6EE8\u8DEF56\u53F7","MLng":"121.251986","MLat":"37.578914","TypeBH":"02","TypeMC":"\u6D88\u9632\u5B89\u5168\u4E00\u822C\u5355\u4F4D","FireManagerTel":""},{"ID":"41890","MC":"\u4E3D\u5A1C\u5E7C\u513F\u56ED","AreaBH":"0137061109","AreaMC":"\u5C71\u4E1C\u7701-\u70DF\u53F0\u5E02-\u798F\u5C71\u533A-\u6E05\u6D0B\u8857\u9053\u529E\u4E8B\u5904","Address":"\u70DF\u53F0\u5E02\u798F\u5C71\u533A\u5317\u4E00\u8DEF123\u53F7","MLng":"121.271587","MLat":"37.509393","TypeBH":"03","TypeMC":"\u4E5D\u5C0F\u573A\u6240","FireManagerTel":""},{"ID":"41891","MC":"\u65B0\u65F6\u4EE3\u5E7C\u513F\u56ED","AreaBH":"0137061109","AreaMC":"\u5C71\u4E1C\u7701-\u70DF\u53F0\u5E02-\u798F\u5C71\u533A-\u6E05\u6D0B\u8857\u9053\u529E\u4E8B\u5904","Address":"\u70DF\u53F0\u5E02\u798F\u5C71\u533A\u5357\u82D1\u885796\u4E4B5-7","MLng":"121.261541","MLat":"37.498227","TypeBH":"03","TypeMC":"\u4E5D\u5C0F\u573A\u6240","FireManagerTel":""},{"ID":"41892","MC":"\u6C38\u4E50\u5E7C\u513F\u56ED","AreaBH":"0137061109","AreaMC":"\u5C71\u4E1C\u7701-\u70DF\u53F0\u5E02-\u798F\u5C71\u533A-\u6E05\u6D0B\u8857\u9053\u529E\u4E8B\u5904","Address":"\u70DF\u53F0\u5E02\u798F\u5C71\u533A\u5357\u82D1\u8857\u4E0E\u946B\u6C47\u5DF7\u4EA4\u53C9\u53E3\u897F","MLng":"121.274605","MLat":"37.503668","TypeBH":"03","TypeMC":"\u4E5D\u5C0F\u573A\u6240","FireManagerTel":""},{"ID":"41893","MC":"\u798F\u5229\u83B1\u5E7C\u513F\u56ED","AreaBH":"0137061109","AreaMC":"\u5C71\u4E1C\u7701-\u70DF\u53F0\u5E02-\u798F\u5C71\u533A-\u6E05\u6D0B\u8857\u9053\u529E\u4E8B\u5904","Address":"\u798F\u5C71\u533A\u5D07\u6587\u8857","MLng":"121.272558","MLat":"37.518609","TypeBH":"03","TypeMC":"\u4E5D\u5C0F\u573A\u6240","FireManagerTel":""},{"ID":"41894","MC":"\u798F\u7F8E\u9716\u751F\u6001\u5E7C\u513F\u56ED","AreaBH":"0137061109","AreaMC":"\u5C71\u4E1C\u7701-\u70DF\u53F0\u5E02-\u798F\u5C71\u533A-\u6E05\u6D0B\u8857\u9053\u529E\u4E8B\u5904","Address":"\u70DF\u53F0\u5E02\u798F\u5C71\u533A\u6C34\u6E05\u6728\u534E\u829D\u9633\u57CE\u522B\u5885\u533A","MLng":"121.276648","MLat":"37.490698","TypeBH":"03","TypeMC":"\u4E5D\u5C0F\u573A\u6240","FireManagerTel":""},{"ID":"41895","MC":"\u542F\u8499\u5E7C\u513F\u56ED1","AreaBH":"0137061109","AreaMC":"\u5C71\u4E1C\u7701-\u70DF\u53F0\u5E02-\u798F\u5C71\u533A-\u6E05\u6D0B\u8857\u9053\u529E\u4E8B\u5904","Address":"\u70DF\u53F0\u5E02\u798F\u5C71\u533A\u57CE\u897F\u6751525\u53F7","MLng":"121.255218","MLat":"37.511359","TypeBH":"03","TypeMC":"\u4E5D\u5C0F\u573A\u6240","FireManagerTel":""},{"ID":"41896","MC":"\u7EA2\u6885\u5E7C\u513F\u56ED","AreaBH":"0137061109","AreaMC":"\u5C71\u4E1C\u7701-\u70DF\u53F0\u5E02-\u798F\u5C71\u533A-\u6E05\u6D0B\u8857\u9053\u529E\u4E8B\u5904","Address":"\u70DF\u53F0\u5E02\u798F\u5C71\u533A\u897F\u5C71\u8DEF99\u53F7","MLng":"121.260884","MLat":"37.49602","TypeBH":"03","TypeMC":"\u4E5D\u5C0F\u573A\u6240","FireManagerTel":""},{"ID":"26007","MC":"\u9F99\u53E3\u5609\u5143","AreaBH":"0137068102","AreaMC":"\u5C71\u4E1C\u7701-\u70DF\u53F0\u5E02-\u9F99\u53E3\u5E02-\u4E1C\u83B1\u8857\u9053\u529E\u4E8B\u5904","Address":"\u5229\u7FA4\u8D85\u5E02\u5357","MLng":"120.510224","MLat":"37.644805","TypeBH":"03","TypeMC":"\u4E5D\u5C0F\u573A\u6240","FireManagerTel":""},{"ID":"26014","MC":"\u4E2D\u56FD\u79FB\u52A8\u901A\u4FE1\u96C6\u56E2\u5C71\u4E1C\u6709\u9650\u516C\u53F8\u70DF\u53F0\u7ECF\u6D4E\u6280\u672F\u5F00\u53D1\u533A\u5206\u516C\u53F8","AreaBH":"01370699","AreaMC":"\u5C71\u4E1C\u7701-\u70DF\u53F0\u5E02-\u5F00\u53D1\u533A","Address":"\u70DF\u53F0\u7ECF\u6D4E\u6280\u672F\u5F00\u53D1\u533A\u5E7F\u5DDE\u8DEF1\u53F7","MLng":"121.260381","MLat":"37.569874","TypeBH":"03","TypeMC":"\u4E5D\u5C0F\u573A\u6240","FireManagerTel":"13708902827"},{"ID":"26032","MC":"\u67AB\u665A\u8001\u5E74\u516C\u5BD3","AreaBH":"0137068101","AreaMC":"\u5C71\u4E1C\u7701-\u70DF\u53F0\u5E02-\u9F99\u53E3\u5E02-\u9F99\u6E2F\u8857\u9053\u529E\u4E8B\u5904","Address":"\u9F99\u6E2F\u8DEF\u4E2D\u6BB5","MLng":"120.332736","MLat":"37.69322","TypeBH":"03","TypeMC":"\u4E5D\u5C0F\u573A\u6240","FireManagerTel":""},{"ID":"26080","MC":"\u70DF\u53F0\u5E02\u4FDD\u5229\u5927\u5267\u9662\u7BA1\u7406\u6709\u9650\u516C\u53F8\u798F\u5C71\u5267\u9662\u4FDD\u5229\u9662\u7EBF","AreaBH":"0137061109","AreaMC":"\u5C71\u4E1C\u7701-\u70DF\u53F0\u5E02-\u798F\u5C71\u533A-\u6E05\u6D0B\u8857\u9053\u529E\u4E8B\u5904","Address":"\u798F\u5C71\u533A\u6587\u535A\u82D1\u897F\u95E8","MLng":"121.260378","MLat":"37.48677","TypeBH":"01","TypeMC":"\u6D88\u9632\u5B89\u5168\u91CD\u70B9\u5355\u4F4D","FireManagerTel":"13256621222"},{"ID":"26081","MC":"\u70DF\u53F0\u5E02\u4EBA\u6C11\u8B66\u5BDF\u57F9\u8BAD\u5B66\u6821","AreaBH":"01370613","AreaMC":"\u5C71\u4E1C\u7701-\u70DF\u53F0\u5E02-\u83B1\u5C71\u533A","Address":"\u89C2\u6D77\u8DEF125\u53F7","MLng":"121.446697","MLat":"37.50413","TypeBH":"01","TypeMC":"\u6D88\u9632\u5B89\u5168\u91CD\u70B9\u5355\u4F4D","FireManagerTel":"18660062129"},{"ID":"26084","MC":"\u9F99\u53E377\u7535\u7ADE\u7F51\u5496","AreaBH":"0137068105","AreaMC":"\u5C71\u4E1C\u7701-\u70DF\u53F0\u5E02-\u9F99\u53E3\u5E02-\u4E1C\u6C5F\u8857\u9053\u529E\u4E8B\u5904","Address":"\u6717\u6E90\u8DEF509\u53F7","MLng":"120.514082","MLat":"37.614427","TypeBH":"03","TypeMC":"\u4E5D\u5C0F\u573A\u6240","FireManagerTel":""},{"ID":"26125","MC":"\u5609\u5143\u9526\u4E0A\u6625\u5929","AreaBH":"0137068104","AreaMC":"\u5C71\u4E1C\u7701-\u70DF\u53F0\u5E02-\u9F99\u53E3\u5E02-\u65B0\u5609\u8857\u9053\u529E\u4E8B\u5904","Address":"\u5229\u7FA4\u8D85\u5E02","MLng":"120.504986","MLat":"37.650384","TypeBH":"03","TypeMC":"\u4E5D\u5C0F\u573A\u6240","FireManagerTel":""},{"ID":"26160","MC":"\u9F99\u53E3\u5E02\u6211\u7231\u6211\u5BB6\u8D85\u5E02\u6709\u9650\u516C\u53F8","AreaBH":"0137068101","AreaMC":"\u5C71\u4E1C\u7701-\u70DF\u53F0\u5E02-\u9F99\u53E3\u5E02-\u9F99\u6E2F\u8857\u9053\u529E\u4E8B\u5904","Address":"\u65B0\u9F99\u8DEF\u4E2D\u6BB5","MLng":"120.333781","MLat":"37.643936","TypeBH":"03","TypeMC":"\u4E5D\u5C0F\u573A\u6240","FireManagerTel":""},{"ID":"26200","MC":"\u70DF\u53F0\u798F\u5C71\u533A\u66D9\u5149\u5E7C\u513F\u56ED","AreaBH":"013706110811","AreaMC":"\u5C71\u4E1C\u7701-\u70DF\u53F0\u5E02-\u798F\u5C71\u533A-\u9AD8\u65B0\u533A\u7BA1\u59D4-\u5C0F\u9648\u5BB6\u5C45\u59D4\u4F1A","Address":"\u70DF\u53F0\u798F\u5C71\u533A\u798F\u6D77\u8DEF\u8FDE\u798F\u885758-13","MLng":"121.25735","MLat":"37.538649","TypeBH":"03","TypeMC":"\u4E5D\u5C0F\u573A\u6240","FireManagerTel":"13964566223"},{"ID":"26271","MC":"\u56DB\u6D77\u7F51\u5496\u73B2\u73D1\u5E97","AreaBH":"0137068514","AreaMC":"\u5C71\u4E1C\u7701-\u70DF\u53F0\u5E02-\u62DB\u8FDC\u5E02-\u62DB\u8FDC\u5E02\u5F00\u53D1\u533A","Address":"\u8F6E\u80CE\u5382\u5BF9\u9762","MLng":"120.452146","MLat":"37.396235","TypeBH":"03","TypeMC":"\u4E5D\u5C0F\u573A\u6240","FireManagerTel":""},{"ID":"26291","MC":"\u70DF\u53F0\u65B0\u5965\u5B9E\u4E1A\u6709\u9650\u516C\u53F8\u70DF\u53F0\u5F00\u53D1\u533A\u9EC4\u6CB3\u8DEF\u5E97","AreaBH":"0137069901","AreaMC":"\u5C71\u4E1C\u7701-\u70DF\u53F0\u5E02-\u5F00\u53D1\u533A-\u798F\u83B1\u5C71\u8857\u9053\u529E\u4E8B\u5904","Address":"\u5C71\u4E1C\u7701\u70DF\u53F0\u5E02\u7ECF\u6D4E\u6280\u672F\u5F00\u53D1\u533A\u9EC4\u6CB3\u8DEFJ-4\u5C0F\u533A","MLng":"121.209044","MLat":"37.581555","TypeBH":"01","TypeMC":"\u6D88\u9632\u5B89\u5168\u91CD\u70B9\u5355\u4F4D","FireManagerTel":"15053539895"},{"ID":"26314","MC":"\u8D3A\u5229\u6C0F","AreaBH":"0137068514","AreaMC":"\u5C71\u4E1C\u7701-\u70DF\u53F0\u5E02-\u62DB\u8FDC\u5E02-\u62DB\u8FDC\u5E02\u5F00\u53D1\u533A","Address":"","MLng":"120.439517","MLat":"37.358755","TypeBH":"03","TypeMC":"\u4E5D\u5C0F\u573A\u6240","FireManagerTel":""},{"ID":"26340","MC":"\u70DF\u53F0\u6D77\u5173\u9F99\u53E3\u529E\u4E8B\u5904","AreaBH":"0137068101","AreaMC":"\u5C71\u4E1C\u7701-\u70DF\u53F0\u5E02-\u9F99\u53E3\u5E02-\u9F99\u6E2F\u8857\u9053\u529E\u4E8B\u5904","Address":"\u539F\u5927\u6E7E\u540E\u5F90\u5BB6\u5C0F\u5B66","MLng":"120.339492","MLat":"37.631746","TypeBH":"03","TypeMC":"\u4E5D\u5C0F\u573A\u6240","FireManagerTel":""},{"ID":"26351","MC":"\u5C71\u4E1C\u9F99\u53E3\u4E09\u5143\u94DD\u6750\u6709\u9650\u516C\u53F8","AreaBH":"01370681","AreaMC":"\u5C71\u4E1C\u7701-\u70DF\u53F0\u5E02-\u9F99\u53E3\u5E02","Address":"\u6717\u6E90\u8DEF\u5B87\u5B89\u4EA4\u754C","MLng":"120.485089","MLat":"37.649805","TypeBH":"03","TypeMC":"\u4E5D\u5C0F\u573A\u6240","FireManagerTel":"18153525453"},{"ID":"26365","MC":"\u6D77\u5CB8\u534E\u5E9C","AreaBH":"0137068101","AreaMC":"\u5C71\u4E1C\u7701-\u70DF\u53F0\u5E02-\u9F99\u53E3\u5E02-\u9F99\u6E2F\u8857\u9053\u529E\u4E8B\u5904","Address":"\u65B0\u9F99\u8DEF","MLng":"120.328877","MLat":"37.632075","TypeBH":"03","TypeMC":"\u4E5D\u5C0F\u573A\u6240","FireManagerTel":""},{"ID":"26366","MC":"\u8DA3\u5C1A\u7F51\u5427","AreaBH":"0137068106","AreaMC":"\u5C71\u4E1C\u7701-\u70DF\u53F0\u5E02-\u9F99\u53E3\u5E02-\u8BF8\u7531\u89C2\u9547","Address":"\u5927\u9A6C\u897F\u6751\u7891\u5904","MLng":"120.485089","MLat":"37.649805","TypeBH":"03","TypeMC":"\u4E5D\u5C0F\u573A\u6240","FireManagerTel":""},{"ID":"26416","MC":"\u9F99\u53E3\u5E02\u4E1C\u6D77\u5929\u874E\u7F51\u5427","AreaBH":"01370681","AreaMC":"\u5C71\u4E1C\u7701-\u70DF\u53F0\u5E02-\u9F99\u53E3\u5E02","Address":"\u9F99\u53E3\u5E02\u4E1C\u6D77\u6D77\u6CF0\u5C455-109\u53F7","MLng":"120.475902","MLat":"37.736803","TypeBH":"03","TypeMC":"\u4E5D\u5C0F\u573A\u6240","FireManagerTel":""},{"ID":"26561","MC":"\u70DF\u53F0\u798F\u5C71\u9633\u5149\u9996\u9662","AreaBH":"013706110807","AreaMC":"\u5C71\u4E1C\u7701-\u70DF\u53F0\u5E02-\u798F\u5C71\u533A-\u9AD8\u65B0\u533A\u7BA1\u59D4-\u6C38\u798F\u56ED\u5C45\u59D4\u4F1A","Address":"\u798F\u5C71\u533A\u6C47\u798F\u88579\u53F7(\u6C47\u798F\u8857\u4E0E\u677E\u971E\u8DEF\u4EA4\u6C47\u5904\u5317)","MLng":"121.282439","MLat":"37.522218","TypeBH":"03","TypeMC":"\u4E5D\u5C0F\u573A\u6240","FireManagerTel":""},{"ID":"26583","MC":"\u4E2D\u6751\u6CB3\u7554\u5BB6\u82D1","AreaBH":"0137068101","AreaMC":"\u5C71\u4E1C\u7701-\u70DF\u53F0\u5E02-\u9F99\u53E3\u5E02-\u9F99\u6E2F\u8857\u9053\u529E\u4E8B\u5904","Address":"\u4E2D\u6751\u6751\u4E1C\u8DEF\u5317","MLng":"120.485089","MLat":"37.649805","TypeBH":"03","TypeMC":"\u4E5D\u5C0F\u573A\u6240","FireManagerTel":""},{"ID":"26589","MC":"\u5929\u4F51\u82B1\u56ED","AreaBH":"013706821907","AreaMC":"\u5C71\u4E1C\u7701-\u70DF\u53F0\u5E02-\u83B1\u9633\u5E02-\u53E4\u67F3\u8857\u9053\u529E\u4E8B\u5904-\u8D6D\u57E0\u6751","Address":"\u83B1\u9633\u5E02\u53E4\u67F3\u8857\u9053\u529E\u4E8B\u5904\u8D6D\u57E0\u6751\u6751\u540E","MLng":"120.745747","MLat":"36.951742","TypeBH":"03","TypeMC":"\u4E5D\u5C0F\u573A\u6240","FireManagerTel":""},{"ID":"26639","MC":"\u6D69\u666E\u65B0\u6750\u6599\u79D1\u6280\u80A1\u4EFD\u6709\u9650\u516C\u53F8","AreaBH":"0137069903","AreaMC":"\u5C71\u4E1C\u7701-\u70DF\u53F0\u5E02-\u5F00\u53D1\u533A-\u5927\u5B63\u5BB6\u8857\u9053\u529E\u4E8B\u5904","Address":"\u70DF\u53F0\u7ECF\u6D4E\u6280\u672F\u5F00\u53D1\u533AC-48\u5C0F\u533A","MLng":"121.211742","MLat":"37.585434","TypeBH":"01","TypeMC":"\u6D88\u9632\u5B89\u5168\u91CD\u70B9\u5355\u4F4D","FireManagerTel":"18654659448"},{"ID":"26641","MC":"\u70DF\u53F0\u5FB7\u90A6\u65B0\u6750\u6599\u6709\u9650\u516C\u53F8","AreaBH":"0137069903","AreaMC":"\u5C71\u4E1C\u7701-\u70DF\u53F0\u5E02-\u5F00\u53D1\u533A-\u5927\u5B63\u5BB6\u8857\u9053\u529E\u4E8B\u5904","Address":"\u70DF\u53F0\u5F00\u53D1\u533A\u5F00\u5C01\u8DEF3-3","MLng":"121.097343","MLat":"37.672345","TypeBH":"01","TypeMC":"\u6D88\u9632\u5B89\u5168\u91CD\u70B9\u5355\u4F4D","FireManagerTel":"15905351258"},{"ID":"26642","MC":"\u70DF\u53F0\u4FDD\u7ACB\u4F73\u65B0\u6750\u6599\u6709\u9650\u516C\u53F8","AreaBH":"0137069903","AreaMC":"\u5C71\u4E1C\u7701-\u70DF\u53F0\u5E02-\u5F00\u53D1\u533A-\u5927\u5B63\u5BB6\u8857\u9053\u529E\u4E8B\u5904","Address":"\u70DF\u53F0\u5F00\u53D1\u533A\u5F00\u5C01\u8DEF3-20\u53F7\uFF08C-36\u5C0F\u533A\uFF09","MLng":"121.183477","MLat":"37.588327","TypeBH":"01","TypeMC":"\u6D88\u9632\u5B89\u5168\u91CD\u70B9\u5355\u4F4D","FireManagerTel":"18853566128"},{"ID":"26669","MC":"\u9F99\u53E3\u5E02\u5E7F\u53D1\u94F6\u884C","AreaBH":"0137068102","AreaMC":"\u5C71\u4E1C\u7701-\u70DF\u53F0\u5E02-\u9F99\u53E3\u5E02-\u4E1C\u83B1\u8857\u9053\u529E\u4E8B\u5904","Address":"\u8001\u5BCC\u9F99\u8D85\u5E02","MLng":"120.52816","MLat":"37.64694","TypeBH":"01","TypeMC":"\u6D88\u9632\u5B89\u5168\u91CD\u70B9\u5355\u4F4D","FireManagerTel":""},{"ID":"26673","MC":"\u70DF\u53F0\u4E3D\u666F\u534A\u5C9B\u9152\u5E97\u6709\u9650\u516C\u53F8","AreaBH":"0137060202","AreaMC":"\u5C71\u4E1C\u7701-\u70DF\u53F0\u5E02-\u829D\u7F58\u533A-\u767D\u77F3\u8857\u9053\u529E\u4E8B\u5904","Address":"\u5C71\u4E1C\u70DF\u53F0\u829D\u7F58\u533A\u5927\u6D77\u9633\u8DEF78\u53F7","MLng":"121.380277","MLat":"37.539071","TypeBH":"01","TypeMC":"\u6D88\u9632\u5B89\u5168\u91CD\u70B9\u5355\u4F4D","FireManagerTel":"0535-7397002"},{"ID":"26744","MC":"\u70DF\u53F0\u91D1\u6F6E\u5B87\u79D1\u84C4\u7535\u6C60\u6709\u9650\u516C\u53F8","AreaBH":"0137068514","AreaMC":"\u5C71\u4E1C\u7701-\u70DF\u53F0\u5E02-\u62DB\u8FDC\u5E02-\u62DB\u8FDC\u5E02\u5F00\u53D1\u533A","Address":"\u62DB\u8FDC\u5E02\u91D1\u9F99\u8DEF16\u53F7","MLng":"120.440811","MLat":"37.36105","TypeBH":"03","TypeMC":"\u4E5D\u5C0F\u573A\u6240","FireManagerTel":"15040016108"},{"ID":"26746","MC":"\u83B1\u9633\u5E02\u535A\u7269\u9986","AreaBH":"0137068201","AreaMC":"\u5C71\u4E1C\u7701-\u70DF\u53F0\u5E02-\u83B1\u9633\u5E02-\u57CE\u53A2\u8857\u9053\u529E\u4E8B\u5904","Address":"\u5927\u5BFA\u885745\u53F7","MLng":"120.719399","MLat":"36.981912","TypeBH":"03","TypeMC":"\u4E5D\u5C0F\u573A\u6240","FireManagerTel":""},{"ID":"26873","MC":"\u6816\u971E\u5BB6\u5BB6\u60A6\u6768\u7840\u5E97","AreaBH":"0137068611","AreaMC":"\u5C71\u4E1C\u7701-\u70DF\u53F0\u5E02-\u6816\u971E\u5E02-\u6768\u7840\u9547","Address":"\u6768\u7840\u9547","MLng":"120.789123","MLat":"37.196458","TypeBH":"02","TypeMC":"\u6D88\u9632\u5B89\u5168\u4E00\u822C\u5355\u4F4D","FireManagerTel":"15269579258"},{"ID":"4769","MC":"\u70DF\u53F0\u5E02\u9EC4\u6D77\u6C7D\u8F66\u8D38\u6613\u6709\u9650\u516C\u53F8","AreaBH":"013706020309","AreaMC":"\u5C71\u4E1C\u7701\u70DF\u53F0\u5E02-\u829D\u7F58\u533A-\u4E16\u56DE\u5C27\u8857\u9053\u529E\u4E8B\u5904-\u534E\u65B0\u793E\u533A","Address":"\u5C71\u4E1C\u7701\u70DF\u53F0\u5E02\u829D\u7F58\u533A\u673A\u573A\u8DEF191\u53F7","MLng":"121.371171","MLat":"37.507908","TypeBH":"02","TypeMC":"\u6D88\u9632\u5B89\u5168\u4E00\u822C\u5355\u4F4D","FireManagerTel":"15589561087"},{"ID":"1680","MC":"\u4E0A\u6D77\u7EA2\u661F\u7F8E\u51EF\u9F99\u54C1\u724C\u7BA1\u7406\u6709\u9650\u516C\u53F8\u70DF\u53F0\u5206\u516C\u53F8","AreaBH":"0137060206","AreaMC":"\u5C71\u4E1C\u7701\u70DF\u53F0\u5E02-\u829D\u7F58\u533A-\u9EC4\u52A1\u8857\u9053\u529E\u4E8B\u5904","Address":"\u70DF\u53F0\u5E02\u829D\u7F58\u533A\u673A\u573A\u8DEF252\u53F7","MLng":"121.367827","MLat":"37.47819","TypeBH":"01","TypeMC":"\u6D88\u9632\u5B89\u5168\u91CD\u70B9\u5355\u4F4D","FireManagerTel":"18663846008"},{"ID":"1702","MC":"\u70DF\u53F0\u5F00\u53D1\u533A\u54C8\u96F7\u8FEA\u5385\t","AreaBH":"0137069901","AreaMC":"\u798F\u83B1\u5C71\u8857\u9053\u529E\u4E8B\u5904","Address":"\u70DF\u53F0\u5F00\u53D1\u533A\u5FB7\u80DC\u5546\u57CE\u8D1F\u4E00\u5C428\u53F7","MLng":"121.275655","MLat":"37.567598","TypeBH":"01","TypeMC":"\u6D88\u9632\u5B89\u5168\u91CD\u70B9\u5355\u4F4D","FireManagerTel":"13156903210"},{"ID":"1704","MC":"\u6816\u971E\u5E02\u65B0\u534F\u548C\u533B\u9662","AreaBH":"013706860102","AreaMC":"\u5C71\u4E1C\u7701-\u70DF\u53F0\u5E02-\u6816\u971E\u5E02-\u7FE0\u5C4F\u8857\u9053\u529E\u4E8B\u5904-\u7FE0\u4EAD\u793E\u533A","Address":"\u6816\u971E\u5E02\u971E\u5149\u8DEF478\u53F7","MLng":"120.83875","MLat":"37.310151","TypeBH":"02","TypeMC":"\u6D88\u9632\u5B89\u5168\u4E00\u822C\u5355\u4F4D","FireManagerTel":"5265866"},{"ID":"1708","MC":"\u5C71\u4E1C\u83B1\u9633\u6625\u96EA\u98DF\u54C1\u6709\u9650\u516C\u53F8","AreaBH":"0137068205","AreaMC":"\u83B1\u9633\u5E02-\u53E4\u67F3\u8857\u9053\u529E\u4E8B\u5904","Address":"\u4E94\u9F99\u5357\u8DEF89\u53F7","MLng":"120.716262","MLat":"36.959359","TypeBH":"01","TypeMC":"\u6D88\u9632\u5B89\u5168\u91CD\u70B9\u5355\u4F4D","FireManagerTel":"13854588088"},{"ID":"1718","MC":"\u70DF\u53F0\u7EA2\u661F\u7F8E\u51EF\u9F99\u5BB6\u5C45\u6709\u9650\u516C\u53F8","AreaBH":"0137060206","AreaMC":"\u5C71\u4E1C\u7701\u70DF\u53F0\u5E02-\u829D\u7F58\u533A-\u9EC4\u52A1\u8857\u9053\u529E\u4E8B\u5904","Address":"\u70DF\u53F0\u5E02\u829D\u7F58\u533A\u673A\u573A\u8DEF281\u53F7","MLng":"121.364554","MLat":"37.471594","TypeBH":"01","TypeMC":"\u6D88\u9632\u5B89\u5168\u91CD\u70B9\u5355\u4F4D","FireManagerTel":"2159299"},{"ID":"1728","MC":"\u70DF\u53F0\u4EAC\u57CE\u670D\u88C5\u6709\u9650\u516C\u53F8","AreaBH":"0137068201","AreaMC":"\u83B1\u9633\u5E02-\u57CE\u53A2\u8857\u9053\u529E\u4E8B\u5904","Address":"\u9F99\u95E8\u897F\u8DEF164\u53F7","MLng":"120.718225","MLat":"36.985114","TypeBH":"01","TypeMC":"\u6D88\u9632\u5B89\u5168\u91CD\u70B9\u5355\u4F4D","FireManagerTel":"13376385826"},{"ID":"1741","MC":"\u83B1\u9633\u987A\u6210\u670D\u88C5\u6709\u9650\u516C\u53F8","AreaBH":"0137068201","AreaMC":"\u83B1\u9633\u5E02-\u57CE\u53A2\u8857\u9053\u529E\u4E8B\u5904","Address":"\u9F99\u95E8\u897F\u8DEF96\u53F7","MLng":"120.691459","MLat":"36.968363","TypeBH":"01","TypeMC":"\u6D88\u9632\u5B89\u5168\u91CD\u70B9\u5355\u4F4D","FireManagerTel":"13805459119"},{"ID":"1746","MC":"\u6D77\u9633\u5E02\u5927\u5927\u798F\u8D2D\u7269\u5E7F\u573A","AreaBH":"0137068702","AreaMC":"\u5C71\u4E1C\u7701-\u70DF\u53F0\u5E02-\u6D77\u9633\u5E02-\u4E1C\u6751\u8857\u9053\u529E\u4E8B\u5904","Address":"\u6D77\u653F\u8DEF73\u53F7","MLng":"121.168783","MLat":"36.783772","TypeBH":"01","TypeMC":"\u6D88\u9632\u5B89\u5168\u91CD\u70B9\u5355\u4F4D","FireManagerTel":"13468435809"},{"ID":"1762","MC":"\u70DF\u53F0\u4EA4\u8FD0\u96C6\u56E2\u6709\u9650\u8D23\u4EFB\u516C\u53F8\u80F6\u4E1C\u6D77\u4EA7\u54C1\u6279\u53D1\u5E02\u573A","AreaBH":"013706020805","AreaMC":"\u5C71\u4E1C\u7701\u70DF\u53F0\u5E02-\u829D\u7F58\u533A-\u901A\u4F38\u8857\u9053\u529E\u4E8B\u5904-\u829D\u7F58\u5C6F\u793E\u533A","Address":"\u829D\u7F58\u533A\u829D\u7F58\u5C6F\u8DEF68\u53F7","MLng":"121.367447","MLat":"37.563747","TypeBH":"02","TypeMC":"\u6D88\u9632\u5B89\u5168\u4E00\u822C\u5355\u4F4D","FireManagerTel":"13553100050"},{"ID":"1763","MC":"\u70DF\u53F0\u5DE8\u529B\u7CBE\u7EC6\u5316\u5DE5\u80A1\u4EFD\u6709\u9650\u516C\u53F8","AreaBH":"0137068205","AreaMC":"\u83B1\u9633\u5E02-\u53E4\u67F3\u8857\u9053\u529E\u4E8B\u5904","Address":"\u5D02\u5C71\u8DEF6\u53F7","MLng":"120.671909","MLat":"36.948588","TypeBH":"01","TypeMC":"\u6D88\u9632\u5B89\u5168\u91CD\u70B9\u5355\u4F4D","FireManagerTel":"7362806-2110"},{"ID":"1765","MC":"\u70DF\u53F0\u5F18\u7389\u6D77\u9C9C\u9152\u697C\u6709\u9650\u516C\u53F8","AreaBH":"013706020110","AreaMC":"\u5C71\u4E1C\u7701\u70DF\u53F0\u5E02-\u829D\u7F58\u533A-\u6BD3\u749C\u9876\u8857\u9053\u529E\u4E8B\u5904-\u9EC4\u5C71\u5357\u793E\u533A","Address":"\u829D\u7F58\u533A\u5927\u6D77\u9633\u8DEF\u4ED874-3\u53F7","MLng":"121.381128","MLat":"37.537834","TypeBH":"02","TypeMC":"\u6D88\u9632\u5B89\u5168\u4E00\u822C\u5355\u4F4D","FireManagerTel":"15863813116"},{"ID":"1772","MC":" \u6816\u971E\u5BB6\u5BB6\u60A6\u5357\u5CA9\u53E3\u5E97","AreaBH":"013706860208","AreaMC":"\u5C71\u4E1C\u7701-\u70DF\u53F0\u5E02-\u6816\u971E\u5E02-\u5E84\u56ED\u8857\u9053\u529E\u4E8B\u5904-\u76DB\u5BB6\u793E\u533A","Address":"\u6816\u971E\u5E02\u5357\u5CA9\u53E3\u6751","MLng":"120.837879","MLat":"37.338831","TypeBH":"01","TypeMC":"\u6D88\u9632\u5B89\u5168\u91CD\u70B9\u5355\u4F4D","FireManagerTel":"13506455306"},{"ID":"1776","MC":"\u83B1\u9633\u5E02\u7B2C\u4E5D\u4E2D\u5B66","AreaBH":"0137068205","AreaMC":"\u83B1\u9633\u5E02-\u53E4\u67F3\u8857\u9053\u529E\u4E8B\u5904","Address":"\u83B1\u9633\u5E02\u4E94\u9F99\u5357\u8DEF113\u53F7","MLng":"120.718857","MLat":"36.954641","TypeBH":"01","TypeMC":"\u6D88\u9632\u5B89\u5168\u91CD\u70B9\u5355\u4F4D","FireManagerTel":"15318632236"},{"ID":"1786","MC":"\u83B1\u9633\u5E02\u4EA4\u901A\u5BBE\u9986","AreaBH":"0137068201","AreaMC":"\u57CE\u53A2\u8857\u9053\u529E\u4E8B\u5904","Address":"\u4E94\u9F99\u5317\u8DEF101\u53F7","MLng":"120.714029","MLat":"36.987133","TypeBH":"01","TypeMC":"\u6D88\u9632\u5B89\u5168\u91CD\u70B9\u5355\u4F4D","FireManagerTel":"15553437119"},{"ID":"1788","MC":"\u83B1\u9633\u5E02\u4E3D\u90FD\u9910\u996E\u5A31\u4E50\u6709\u9650\u516C\u53F8","AreaBH":"0137068201","AreaMC":"\u83B1\u9633\u5E02-\u57CE\u53A2\u8857\u9053\u529E\u4E8B\u5904","Address":"\u65CC\u65D7\u897F\u8DEF018\u53F7","MLng":"120.692715","MLat":"36.980862","TypeBH":"01","TypeMC":"\u6D88\u9632\u5B89\u5168\u91CD\u70B9\u5355\u4F4D","FireManagerTel":"7808809"},{"ID":"1798","MC":"\u83B1\u9633\u5E02\u5546\u8D38\u57CE\u96C6\u56E2\u603B\u516C\u53F8","AreaBH":"0137068201","AreaMC":"\u83B1\u9633\u5E02-\u57CE\u53A2\u8857\u9053\u529E\u4E8B\u5904","Address":"\u5BCC\u6C34\u8DEF131\u53F7","MLng":"120.718225","MLat":"36.985114","TypeBH":"01","TypeMC":"\u6D88\u9632\u5B89\u5168\u91CD\u70B9\u5355\u4F4D","FireManagerTel":"7332511"},{"ID":"1830","MC":"\u70DF\u53F0\u4EA4\u8FD0\u53CB\u7F18\u9152\u5E97\u7BA1\u7406\u6709\u9650\u516C\u53F8\u6816\u971E\u5BBE\u9986","AreaBH":"013706860101","AreaMC":"\u5C71\u4E1C\u7701-\u70DF\u53F0\u5E02-\u6816\u971E\u5E02-\u7FE0\u5C4F\u8857\u9053\u529E\u4E8B\u5904-\u8FCE\u5BBE\u793E\u533A","Address":"\u6816\u971E\u5E02\u8FCE\u5BBE\u8DEF1010\u53F7","MLng":"120.832778","MLat":"37.30692","TypeBH":"01","TypeMC":"\u6D88\u9632\u5B89\u5168\u91CD\u70B9\u5355\u4F4D","FireManagerTel":"13655451765"},{"ID":"1833","MC":"\u83B1\u9633\u51EF\u4E3D\u9152\u5E97\u7BA1\u7406\u6709\u9650\u516C\u53F8","AreaBH":"0137068201","AreaMC":"\u57CE\u53A2\u8857\u9053\u529E\u4E8B\u5904","Address":"\u5C71\u8DEF197\u53F7","MLng":"120.714119","MLat":"36.97925","TypeBH":"01","TypeMC":"\u6D88\u9632\u5B89\u5168\u91CD\u70B9\u5355\u4F4D","FireManagerTel":"13305359909"},{"ID":"1835","MC":"\u62DB\u8FDC\u5E02\u4EBA\u6C11\u5546\u573A\u6709\u9650\u516C\u53F8","AreaBH":"0137068501","AreaMC":"\u62DB\u8FDC\u5E02\u6CC9\u5C71\u8857\u9053\u529E","Address":"\u62DB\u8FDC\u5E02\u4E1C\u5173\u885715\u53F7","MLng":"120.414873","MLat":"37.366653","TypeBH":"01","TypeMC":"\u6D88\u9632\u5B89\u5168\u91CD\u70B9\u5355\u4F4D","FireManagerTel":"18660552113"},{"ID":"1844","MC":"\u83B1\u9633\u5E02\u660C\u76DB\u5546\u52A1\u9152\u5E97","AreaBH":"0137068201","AreaMC":"\u57CE\u53A2\u8857\u9053\u529E\u4E8B\u5904","Address":"\u660C\u5C71\u8DEF058\u53F7","MLng":"120.72202","MLat":"36.978718","TypeBH":"01","TypeMC":"\u6D88\u9632\u5B89\u5168\u91CD\u70B9\u5355\u4F4D","FireManagerTel":"13356389760"},{"ID":"1845","MC":"\u83B1\u9633\u5E02\u57CE\u53A2\u8FF7\u4E1D\u5546\u573A","AreaBH":"0137068201","AreaMC":"\u83B1\u9633\u5E02-\u57CE\u53A2\u8857\u9053\u529E\u4E8B\u5904","Address":"\u4E94\u9F99\u5317\u8DEF190\u53F7","MLng":"120.718225","MLat":"36.985114","TypeBH":"01","TypeMC":"\u6D88\u9632\u5B89\u5168\u91CD\u70B9\u5355\u4F4D","FireManagerTel":"15154550000"},{"ID":"1850","MC":"\u83B1\u9633\u5E02\u57CE\u53A2\u4E50\u591A\u5BBE\u9986","AreaBH":"0137068201","AreaMC":"\u57CE\u53A2\u8857\u9053\u529E\u4E8B\u5904","Address":"\u91D1\u5C71\u8DEF","MLng":"120.713967","MLat":"36.987624","TypeBH":"03","TypeMC":"\u4E5D\u5C0F\u573A\u6240","FireManagerTel":"3366077"},{"ID":"4058","MC":"\u70DF\u53F0\u5E02\u829D\u7F58\u533A\u5E78\u798F\u533B\u9662","AreaBH":"013706020805","AreaMC":"\u5C71\u4E1C\u7701\u70DF\u53F0\u5E02-\u829D\u7F58\u533A-\u901A\u4F38\u8857\u9053\u529E\u4E8B\u5904-\u829D\u7F58\u5C6F\u793E\u533A","Address":"\u829D\u7F58\u5C6F\u8DEF64\u53F7","MLng":"121.367038","MLat":"37.563897","TypeBH":"02","TypeMC":"\u6D88\u9632\u5B89\u5168\u4E00\u822C\u5355\u4F4D","FireManagerTel":"13589825861"},{"ID":"10572","MC":"\u70DF\u53F0\u5723\u535A\u60E0\u4E0A\u7F51\u670D\u52A1\u6709\u9650\u516C\u53F8","AreaBH":"01370697","AreaMC":"\u5C71\u4E1C\u7701\u70DF\u53F0\u5E02-\u9AD8\u65B0\u533A","Address":"\u9A6C\u5C71\u529E\u4E8B\u5904\u5357\u5BE8\u6751","MLng":"121.538255","MLat":"37.440527","TypeBH":"02","TypeMC":"\u6D88\u9632\u5B89\u5168\u4E00\u822C\u5355\u4F4D","FireManagerTel":"13605356601"},{"ID":"10577","MC":"\u5FA1\u82B1\u56ED\u8001\u5E74\u516C\u5BD3","AreaBH":"01370697","AreaMC":"\u5C71\u4E1C\u7701\u70DF\u53F0\u5E02-\u9AD8\u65B0\u533A","Address":"\u9AD8\u65B0\u533A \u897F\u6CCA\u5B50","MLng":"121.467947","MLat":"37.464831","TypeBH":"02","TypeMC":"\u6D88\u9632\u5B89\u5168\u4E00\u822C\u5355\u4F4D","FireManagerTel":"18506386220"},{"ID":"10587","MC":"\u83B1\u5C71\u533A\u5C71\u91CC\u5A03\u8DB3\u6D74\u4E2D\u5FC3","AreaBH":"013706130404","AreaMC":"\u5C71\u4E1C\u7701-\u70DF\u53F0\u5E02-\u83B1\u5C71\u533A-\u9EC4\u6D77\u8DEF\u8857\u9053\u529E\u4E8B\u5904-\u524D\u4E03\u593C\u793E\u533A","Address":"\u83B1\u5C71\u533A\u6E14\u4EBA\u7801\u5934\u8DEF10\u53F7","MLng":"121.433913","MLat":"37.459233","TypeBH":"01","TypeMC":"\u6D88\u9632\u5B89\u5168\u91CD\u70B9\u5355\u4F4D","FireManagerTel":"15615655693"},{"ID":"10594","MC":"\u70DF\u53F0\u670B\u971E\u4E92\u8054\u7F51\u4E0A\u7F51\u670D\u52A1\u6709\u9650\u516C\u53F8","AreaBH":"01370697","AreaMC":"\u5C71\u4E1C\u7701-\u70DF\u53F0\u5E02-\u9AD8\u65B0\u533A","Address":"\u4E1C\u6CCA\u5B50\u519C\u4E1A\u5927\u5B66\u897F\u95E8\u7F51\u70B9","MLng":"121.520906","MLat":"37.43907","TypeBH":"02","TypeMC":"\u6D88\u9632\u5B89\u5168\u4E00\u822C\u5355\u4F4D","FireManagerTel":"13854504066"},{"ID":"10596","MC":"\u9F99\u53E3\u4E07\u548C\u667A\u80FD\u79D1\u6280","AreaBH":"01370681020K","AreaMC":"\u5C71\u4E1C\u7701-\u70DF\u53F0\u5E02-\u9F99\u53E3\u5E02-\u4E1C\u83B1\u8857\u9053\u529E\u4E8B\u5904-\u5357\u6BB5\u6751","Address":"\u9F99\u53E3\u5357\u6BB5\u6751","MLng":"120.547887","MLat":"37.662848","TypeBH":"03","TypeMC":"\u4E5D\u5C0F\u573A\u6240","FireManagerTel":""},{"ID":"55425","MC":"\u70DF\u53F0\u7ACB\u8861\u73AF\u4FDD\u79D1\u6280\u6709\u9650\u516C\u53F8","AreaBH":"0137069903","AreaMC":"\u5C71\u4E1C\u7701-\u70DF\u53F0\u5E02-\u5F00\u53D1\u533A-\u5927\u5B63\u5BB6\u8857\u9053\u529E\u4E8B\u5904","Address":"","MLng":"121.286434","MLat":"37.500028","TypeBH":"01","TypeMC":"\u6D88\u9632\u5B89\u5168\u91CD\u70B9\u5355\u4F4D","FireManagerTel":"15553516997"},{"ID":"55549","MC":"\u83B1\u5DDE\u4EBF\u5EA6\u4E92\u8054\u4E0A\u7F51\u6709\u9650\u516C\u53F8","AreaBH":"0137068301","AreaMC":"\u5C71\u4E1C\u7701-\u70DF\u53F0\u5E02-\u83B1\u5DDE\u5E02-\u6587\u660C\u8DEF\u8857\u9053\u529E\u4E8B\u5904","Address":"\u83B1\u5DDE\u5E02\u6587\u660C\u8DEF\u8857\u9053\u83B1\u5DDE\u5357\u8DEF328\u53F7\u661F\u8F89\u5927\u53A6","MLng":"119.962562","MLat":"37.203303","TypeBH":"03","TypeMC":"\u4E5D\u5C0F\u573A\u6240","FireManagerTel":"18663893976"},{"ID":"55733","MC":"\u83B1\u5DDE\u5609\u5F97\u7F51\u5427","AreaBH":"0137068304","AreaMC":"\u5C71\u4E1C\u7701-\u70DF\u53F0\u5E02-\u83B1\u5DDE\u5E02-\u57CE\u6E2F\u8DEF\u8857\u9053\u529E\u4E8B\u5904","Address":"\u83B1\u5DDE\u5E02\u57CE\u6E2F\u8DEF\u8857\u9053\u897F\u90CE\u5B50\u57E0\u675179\u53F7","MLng":"119.951507","MLat":"37.209907","TypeBH":"03","TypeMC":"\u4E5D\u5C0F\u573A\u6240","FireManagerTel":"15106532664"},{"ID":"55737","MC":"\u4E2D\u5316\u77F3\u6CB9\u9F99\u53E3\u5E02\u6D77\u6E2F\u8DEF\u52A0\u6CB9\u7AD9","AreaBH":"01370681","AreaMC":"\u5C71\u4E1C\u7701-\u70DF\u53F0\u5E02-\u9F99\u53E3\u5E02","Address":"\u9F99\u53E3\u5E02\u6D77\u6E2F\u8DEF\u9F99\u534E\u6751\u897F\u4E2D\u5316\u52A0\u6CB9\u7AD9","MLng":"120.379529","MLat":"37.663256","TypeBH":"03","TypeMC":"\u4E5D\u5C0F\u573A\u6240","FireManagerTel":""},{"ID":"55761","MC":"\u83B1\u5DDE\u5E02\u5B8F\u78CA\u5DE5\u8D38","AreaBH":"0137068302","AreaMC":"\u5C71\u4E1C\u7701-\u70DF\u53F0\u5E02-\u83B1\u5DDE\u5E02-\u6C38\u5B89\u8DEF\u8857\u9053\u529E\u4E8B\u5904","Address":"\u5C71\u4E1C\u7701\u70DF\u53F0\u5E02\u83B1\u5DDE\u5E02\u9541\u77FF\u8DEF","MLng":"119.915694","MLat":"37.197135","TypeBH":"03","TypeMC":"\u4E5D\u5C0F\u573A\u6240","FireManagerTel":"13705359193"},{"ID":"56066","MC":"\u70DF\u53F0\u6717\u6717\u65F6\u88C5\u6709\u9650\u516C\u53F8","AreaBH":"0137068704","AreaMC":"\u5C71\u4E1C\u7701-\u70DF\u53F0\u5E02-\u6D77\u9633\u5E02-\u65B9\u5706\u8857\u9053\u529E\u4E8B\u5904","Address":"\u5C71\u4E1C\u7701\u70DF\u53F0\u5E02\u6D77\u9633\u5E02\u6D77\u5174\u8DEF","MLng":"121.213157","MLat":"36.799672","TypeBH":"01","TypeMC":"\u6D88\u9632\u5B89\u5168\u91CD\u70B9\u5355\u4F4D","FireManagerTel":"13963815162"},{"ID":"56072","MC":"\u5927\u67AB\u53F6\u7F51\u5427","AreaBH":"01370613","AreaMC":"\u5C71\u4E1C\u7701-\u70DF\u53F0\u5E02-\u83B1\u5C71\u533A","Address":"\u83B1\u5C71\u533A\u798F\u660E\u8DEF19\u53F7","MLng":"121.454415","MLat":"37.470038","TypeBH":"03","TypeMC":"\u4E5D\u5C0F\u573A\u6240","FireManagerTel":""},{"ID":"9816","MC":"\u70DF\u53F0\u5E02\u516C\u5B89\u6D88\u9632\u652F\u961F\u829D\u7F58\u533A\u5927\u961F","AreaBH":"0137060205","AreaMC":"\u5C71\u4E1C\u7701\u70DF\u53F0\u5E02-\u829D\u7F58\u533A-\u51E4\u51F0\u53F0\u8857\u9053\u529E\u4E8B\u5904","Address":"\u5C71\u4E1C\u7701\u70DF\u53F0\u5E02\u829D\u7F58\u533A\u53EA\u695A\u8DEF100\u53F7","MLng":"121.330615","MLat":"37.548707","TypeBH":"02","TypeMC":"\u6D88\u9632\u5B89\u5168\u4E00\u822C\u5355\u4F4D","FireManagerTel":""},{"ID":"33314","MC":"\u70DF\u53F0\u67F3\u946B\u65B0\u6750\u6599\u79D1\u6280\u6709\u9650\u516C\u53F8","AreaBH":"0137068616","AreaMC":"\u5C71\u4E1C\u7701-\u70DF\u53F0\u5E02-\u6816\u971E\u5E02-\u6816\u971E\u7ECF\u6D4E\u5F00\u53D1\u533A","Address":"\u9A7B\u5730","MLng":"121.825734","MLat":"37.426418","TypeBH":"02","TypeMC":"\u6D88\u9632\u5B89\u5168\u4E00\u822C\u5355\u4F4D","FireManagerTel":"13370948622"},{"ID":"33324","MC":"\u70DF\u53F0\u52E4\u4E30\u5851\u6599\u6709\u9650\u516C\u53F8","AreaBH":"0137068616","AreaMC":"\u5C71\u4E1C\u7701-\u70DF\u53F0\u5E02-\u6816\u971E\u5E02-\u6816\u971E\u7ECF\u6D4E\u5F00\u53D1\u533A","Address":"\u9A7B\u5730","MLng":"121.825734","MLat":"37.426418","TypeBH":"02","TypeMC":"\u6D88\u9632\u5B89\u5168\u4E00\u822C\u5355\u4F4D","FireManagerTel":"13605352333"},{"ID":"33328","MC":"\u5143\u79BE\u6D82\u88C5","AreaBH":"0137068616","AreaMC":"\u5C71\u4E1C\u7701-\u70DF\u53F0\u5E02-\u6816\u971E\u5E02-\u6816\u971E\u7ECF\u6D4E\u5F00\u53D1\u533A","Address":"\u9A7B\u5730","MLng":"121.825734","MLat":"37.426418","TypeBH":"02","TypeMC":"\u6D88\u9632\u5B89\u5168\u4E00\u822C\u5355\u4F4D","FireManagerTel":"18353526261"},{"ID":"2462","MC":"\u70DF\u53F0\u5B9D\u9F99\u7F6E\u4E1A\u6D77\u9633\u96C5\u4E50\u8F69\u9152\u5E97","AreaBH":"0137068715","AreaMC":"\u5C71\u4E1C\u7701-\u70DF\u53F0\u5E02-\u6D77\u9633\u5E02-\u7ECF\u6D4E\u6280\u672F\u5F00\u53D1\u533A","Address":"\u6D77\u6EE8\u897F\u8DEF\u5B9D\u9F99\u57CE","MLng":"121.167069","MLat":"36.680143","TypeBH":"01","TypeMC":"\u6D88\u9632\u5B89\u5168\u91CD\u70B9\u5355\u4F4D","FireManagerTel":"15376596159"},{"ID":"2468","MC":"\u70DF\u53F0\u65B0\u6865\u5BB6\u5C45\u5EFA\u6750\u6709\u9650\u516C\u53F8\t","AreaBH":"013706020502","AreaMC":"\u5C71\u4E1C\u7701\u70DF\u53F0\u5E02-\u829D\u7F58\u533A-\u51E4\u51F0\u53F0\u8857\u9053\u529E\u4E8B\u5904-\u65B0\u6865\u4E1C\u793E\u533A ","Address":"\u829D\u7F58\u533A\u53EA\u695A\u8DEF147\u53F7","MLng":"121.36609","MLat":"37.550846","TypeBH":"01","TypeMC":"\u6D88\u9632\u5B89\u5168\u91CD\u70B9\u5355\u4F4D","FireManagerTel":"13953593212"},{"ID":"2482","MC":"\u70DF\u53F0\u53CC\u5854\u98DF\u54C1\u80A1\u4EFD\u6709\u9650\u516C\u53F8","AreaBH":"0137068507","AreaMC":"\u91D1\u5CAD\u9547","Address":"\u62DB\u8FDC\u5E02\u91D1\u5CAD\u9547","MLng":"120.305123","MLat":"37.41239","TypeBH":"01","TypeMC":"\u6D88\u9632\u5B89\u5168\u91CD\u70B9\u5355\u4F4D","FireManagerTel":""},{"ID":"2488","MC":"\u70DF\u53F0\u5E02\u8054\u95FB\u7ECF\u8D38\u6709\u9650\u516C\u53F8\t(\u90FD\u5E02118\uFF09","AreaBH":"013706020503","AreaMC":"\u5C71\u4E1C\u7701\u70DF\u53F0\u5E02-\u829D\u7F58\u533A-\u51E4\u51F0\u53F0\u8857\u9053\u529E\u4E8B\u5904-\u73E0\u7391\u793E\u533A","Address":"\u829D\u7F58\u533A\u5E78\u798F\u5357\u8DEF9\u53F7","MLng":"121.344151","MLat":"37.565717","TypeBH":"01","TypeMC":"\u6D88\u9632\u5B89\u5168\u91CD\u70B9\u5355\u4F4D","FireManagerTel":"13054588855"},{"ID":"2489","MC":"\u4E2D\u56FD\u8054\u5408\u7F51\u7EDC\u901A\u4FE1\u6709\u9650\u516C\u53F8\u6816\u971E\u5E02\u5206\u516C\u53F8","AreaBH":"0137068602","AreaMC":"\u6816\u971E\u5E02-\u5E84\u56ED\u8857\u9053\u529E\u4E8B\u5904","Address":"\u6816\u971E\u5E02\u971E\u5149\u8DEF307\u53F7","MLng":"120.840094","MLat":"37.314795","TypeBH":"01","TypeMC":"\u6D88\u9632\u5B89\u5168\u91CD\u70B9\u5355\u4F4D","FireManagerTel":"5267858"},{"ID":"2499","MC":"\u70DF\u53F0\u5E02\u91D1\u82F9\u679C\u8D38\u6613\u6709\u9650\u516C\u53F8\u91D1\u82F9\u679C\u7EC3\u6B4C\u623F","AreaBH":"013706020409","AreaMC":"\u5C71\u4E1C\u7701\u70DF\u53F0\u5E02-\u829D\u7F58\u533A-\u4E1C\u5C71\u8857\u9053\u529E\u4E8B\u5904-\u8F9B\u5E84\u793E\u533A","Address":"\u829D\u7F58\u533A\u73AF\u5C71\u8DEF130\u53F7","MLng":"121.409206","MLat":"37.53508","TypeBH":"01","TypeMC":"\u6D88\u9632\u5B89\u5168\u91CD\u70B9\u5355\u4F4D","FireManagerTel":"13589858276"},{"ID":"2512","MC":"\u6052\u4E30\u94F6\u884C\u62DB\u8FDC\u652F\u884C","AreaBH":"0137068502","AreaMC":"\u62DB\u8FDC\u5E02\u7F57\u5CF0\u8857\u9053\u529E","Address":"\u62DB\u8FDC\u5E02\u7F57\u5CF0\u8DEF109\u53F7","MLng":"120.408146","MLat":"37.360565","TypeBH":"01","TypeMC":"\u6D88\u9632\u5B89\u5168\u91CD\u70B9\u5355\u4F4D","FireManagerTel":"8223444"},{"ID":"2521","MC":"\u5C71\u4E1C\u91D1\u6F6E\u80A1\u4EFD\u6709\u9650\u516C\u53F8","AreaBH":"0137068501","AreaMC":"\u62DB\u8FDC\u5E02\u6CC9\u5C71\u8857\u9053\u529E","Address":"\u62DB\u8FDC\u5E02\u5F00\u53D1\u533A","MLng":"120.453023","MLat":"37.358555","TypeBH":"02","TypeMC":"\u6D88\u9632\u5B89\u5168\u4E00\u822C\u5355\u4F4D","FireManagerTel":"8112728"},{"ID":"2523","MC":"\u829D\u7F58\u533A\u6B63\u6D69\u9152\u5E97\u7BA1\u7406\u5904\t","AreaBH":"013706020504","AreaMC":"\u5C71\u4E1C\u7701\u70DF\u53F0\u5E02-\u829D\u7F58\u533A-\u51E4\u51F0\u53F0\u8857\u9053\u529E\u4E8B\u5904-\u4E2D\u53F0\u793E\u533A","Address":"\u829D\u7F58\u533A\u53EA\u695A\u8DEF74\u53F7","MLng":"121.334845","MLat":"37.548875","TypeBH":"01","TypeMC":"\u6D88\u9632\u5B89\u5168\u91CD\u70B9\u5355\u4F4D","FireManagerTel":"15854513535"},{"ID":"2531","MC":"\u5C71\u4E1C\u91D1\u5B9D\u7535\u5B50\u80A1\u4EFD\u6709\u9650\u516C\u53F8","AreaBH":"0137068501","AreaMC":"\u62DB\u8FDC\u5E02\u6CC9\u5C71\u8857\u9053\u529E","Address":"\u62DB\u8FDC\u5E02\u6E29\u6CC9\u8DEF128\u53F7","MLng":"120.431734","MLat":"37.37026","TypeBH":"01","TypeMC":"\u6D88\u9632\u5B89\u5168\u91CD\u70B9\u5355\u4F4D","FireManagerTel":"8116272"},{"ID":"2552","MC":"\u5C71\u4E1C\u62DB\u91D1\u91D1\u94F6\u7CBE\u70BC\u6709\u9650\u516C\u53F8","AreaBH":"0137068501","AreaMC":"\u62DB\u8FDC\u5E02\u6CC9\u5C71\u8857\u9053\u529E","Address":"\u62DB\u8FDC\u5E02\u91D1\u6656\u8DEF289\u53F7","MLng":"120.441641","MLat":"37.372688","TypeBH":"01","TypeMC":"\u6D88\u9632\u5B89\u5168\u91CD\u70B9\u5355\u4F4D","FireManagerTel":"8319999"},{"ID":"2580","MC":"\u62DB\u91D1\u77FF\u4E1A\u80A1\u4EFD\u6709\u9650\u516C\u53F8","AreaBH":"0137068514","AreaMC":"\u5C71\u4E1C\u7701-\u70DF\u53F0\u5E02-\u62DB\u8FDC\u5E02-\u62DB\u8FDC\u5E02\u5F00\u53D1\u533A","Address":"\u62DB\u8FDC\u5E02\u91D1\u6656\u8DEF299\u53F7","MLng":"120.440963","MLat":"37.374469","TypeBH":"01","TypeMC":"\u6D88\u9632\u5B89\u5168\u91CD\u70B9\u5355\u4F4D","FireManagerTel":"8060019"},